{"features":[{"geometry":{"coordinates":[37.691030166675,55.741460690732],"type":"Point"},"properties":{"DatasetId":588,"VersionNumber":4,"ReleaseNumber":13,"RowId":null,"Attributes":{"Address":"Международная улица, дом 25","global_id":20440992,"AdmArea":"Центральный административный округ","District":"Таганский район","TotalParkingSlots":390,"ConstructionBegin":"февраль 2010 года","ConstructionEnd":"март 2011 года"}},"type":"Feature"},{"geometry":{"coordinates":[37.692749573707,55.739611343782],"type":"Point"},"properties":{"DatasetId":588,"VersionNumber":4,"ReleaseNumber":13,"RowId":null,"Attributes":{"Address":"Международная улица, дом 27","global_id":20440993,"AdmArea":"Центральный административный округ","District":"Таганский район","TotalParkingSlots":375,"ConstructionBegin":"февраль 2010 года","ConstructionEnd":"март 2011 года"}},"type":"Feature"},{"geometry":{"coordinates":[37.509377600938,55.876079327219],"type":"Point"},"properties":{"DatasetId":588,"VersionNumber":4,"ReleaseNumber":13,"RowId":null,"Attributes":{"Address":"Базовская улица, дом 8А","global_id":20440995,"AdmArea":"Северный административный округ","District":"район Западное Дегунино","TotalParkingSlots":125,"ConstructionBegin":"март 2010 года","ConstructionEnd":"май 2011 года"}},"type":"Feature"},{"geometry":{"coordinates":[37.573253296561,55.802535726004],"type":"Point"},"properties":{"DatasetId":588,"VersionNumber":4,"ReleaseNumber":13,"RowId":null,"Attributes":{"Address":"Башиловская улица, дом 23, сооружение 1, сооружение 2, сооружение 3","global_id":20440996,"AdmArea":"Северный административный округ","District":"Савёловский район","TotalParkingSlots":123,"ConstructionBegin":"август 2010 года","ConstructionEnd":"март 2012 года"}},"type":"Feature"},{"geometry":{"coordinates":[37.570730295773,55.802482401731],"type":"Point"},"properties":{"DatasetId":588,"VersionNumber":4,"ReleaseNumber":13,"RowId":null,"Attributes":{"Address":"Башиловская улица, дом 23Б","global_id":20440997,"AdmArea":"Северный административный округ","District":"Савёловский район","TotalParkingSlots":100,"ConstructionBegin":"сентябрь 2010 года","ConstructionEnd":"декабрь 2011 года"}},"type":"Feature"},{"geometry":{"coordinates":[37.517644248488,55.87268238644],"type":"Point"},"properties":{"DatasetId":588,"VersionNumber":4,"ReleaseNumber":13,"RowId":null,"Attributes":{"Address":"Весенняя улица, дом 6А","global_id":20441000,"AdmArea":"Северный административный округ","District":"район Западное Дегунино","TotalParkingSlots":98,"ConstructionBegin":"декабрь 2011 года","ConstructionEnd":"июль 2013 года"}},"type":"Feature"},{"geometry":{"coordinates":[37.52649796547,55.866115004824],"type":"Point"},"properties":{"DatasetId":588,"VersionNumber":4,"ReleaseNumber":13,"RowId":null,"Attributes":{"Address":"улица Ивана Сусанина, дом 2, строение 1","global_id":20441001,"AdmArea":"Северный административный округ","District":"район Западное Дегунино","TotalParkingSlots":299,"ConstructionBegin":"ноябрь 2010 года","ConstructionEnd":"декабрь 2013 года"}},"type":"Feature"},{"geometry":{"coordinates":[37.542002569536,55.800485347988],"type":"Point"},"properties":{"DatasetId":588,"VersionNumber":4,"ReleaseNumber":13,"RowId":null,"Attributes":{"Address":"Красноармейская улица, дом 15А","global_id":20441002,"AdmArea":"Северный административный округ","District":"район Аэропорт","TotalParkingSlots":99,"ConstructionBegin":"апрель 2010 года","ConstructionEnd":"сентябрь 2011 года"}},"type":"Feature"},{"geometry":{"coordinates":[37.523727898384,55.827918367673],"type":"Point"},"properties":{"DatasetId":588,"VersionNumber":4,"ReleaseNumber":13,"RowId":null,"Attributes":{"Address":"Новопетровская улица, дом 7А","global_id":20441003,"AdmArea":"Северный административный округ","District":"район Коптево","TotalParkingSlots":149,"ConstructionBegin":"май 2010 года","ConstructionEnd":"март 2011 года"}},"type":"Feature"},{"geometry":{"coordinates":[37.537060397035,55.884143028313],"type":"Point"},"properties":{"DatasetId":588,"VersionNumber":4,"ReleaseNumber":13,"RowId":null,"Attributes":{"Address":"Учинская улица, дом 6А","global_id":20441007,"AdmArea":"Северный административный округ","District":"Дмитровский район","TotalParkingSlots":100,"ConstructionBegin":"март 2010 года","ConstructionEnd":"декабрь 2011 года"}},"type":"Feature"},{"geometry":{"coordinates":[37.614437398591,55.821034661754],"type":"Point"},"properties":{"DatasetId":588,"VersionNumber":4,"ReleaseNumber":13,"RowId":null,"Attributes":{"Address":"улица Академика Королёва, дом 15А","global_id":20441008,"AdmArea":"Северо-Восточный административный округ","District":"Останкинский район","TotalParkingSlots":440,"ConstructionBegin":"октябрь 2010 года","ConstructionEnd":"июль 2013 года"}},"type":"Feature"},{"geometry":{"coordinates":[37.617099555174,55.864989552684],"type":"Point"},"properties":{"DatasetId":588,"VersionNumber":4,"ReleaseNumber":13,"RowId":null,"Attributes":{"Address":"улица Пестеля, дом 6, корпус 1","global_id":20441012,"AdmArea":"Северо-Восточный административный округ","District":"район Отрадное","TotalParkingSlots":170,"ConstructionBegin":"август 2010 года","ConstructionEnd":"сентябрь 2013 года"}},"type":"Feature"},{"geometry":{"coordinates":[37.609569863187,55.876709892556],"type":"Point"},"properties":{"DatasetId":588,"VersionNumber":4,"ReleaseNumber":13,"RowId":null,"Attributes":{"Address":"улица Римского-Корсакова, дом 15Б, строение 4","global_id":20441013,"AdmArea":"Северо-Восточный административный округ","District":"район Отрадное","TotalParkingSlots":409,"ConstructionBegin":"июнь 2010 года","ConstructionEnd":"февраль 2012 года"}},"type":"Feature"},{"geometry":{"coordinates":[37.550851266608,55.914786777346],"type":"Point"},"properties":{"DatasetId":588,"VersionNumber":4,"ReleaseNumber":13,"RowId":null,"Attributes":{"Address":"Челобитьевское шоссе, дом 4А","global_id":20441015,"AdmArea":"Северо-Восточный административный округ","District":"район Северный","TotalParkingSlots":196,"ConstructionBegin":"август 2010 года","ConstructionEnd":"январь 2014 года"}},"type":"Feature"},{"geometry":{"coordinates":[37.910534847581,55.827375332845],"type":"Point"},"properties":{"DatasetId":588,"VersionNumber":4,"ReleaseNumber":13,"RowId":null,"Attributes":{"Address":"Северный, микрорайон 9, корпус 2","global_id":20441016,"AdmArea":"Северо-Восточный административный округ","District":"район Северный","TotalParkingSlots":197,"ConstructionBegin":"апрель 2010 года","ConstructionEnd":"июнь 2013 года"}},"type":"Feature"},{"geometry":{"coordinates":[37.663965642595,55.852179091595],"type":"Point"},"properties":{"DatasetId":588,"VersionNumber":4,"ReleaseNumber":13,"RowId":null,"Attributes":{"Address":"Уржумская улица, 4, корпус 1","global_id":20441017,"AdmArea":"Северо-Восточный административный округ","District":"район Свиблово","TotalParkingSlots":360,"ConstructionBegin":"март 2010 года","ConstructionEnd":"февраль 2011 года"}},"type":"Feature"},{"geometry":{"coordinates":[37.707171362283,55.813251822127],"type":"Point"},"properties":{"DatasetId":588,"VersionNumber":4,"ReleaseNumber":13,"RowId":null,"Attributes":{"Address":"3-я Гражданская улица, дом 19","global_id":20441018,"AdmArea":"Восточный административный округ","District":"район Богородское","TotalParkingSlots":182,"ConstructionBegin":"март 2012 года","ConstructionEnd":"октябрь 2012 года"}},"type":"Feature"},{"geometry":{"coordinates":[37.826277363668,55.724710254425],"type":"Point"},"properties":{"DatasetId":588,"VersionNumber":4,"ReleaseNumber":13,"RowId":null,"Attributes":{"Address":"Вешняковская улица, дом 16, блок А, стр. 1","global_id":20441020,"AdmArea":"Восточный административный округ","District":"район Вешняки","TotalParkingSlots":183,"ConstructionBegin":"март 2010 года","ConstructionEnd":"июнь 2011 года"}},"type":"Feature"},{"geometry":{"coordinates":[37.82554423849,55.725171855273],"type":"Point"},"properties":{"DatasetId":588,"VersionNumber":4,"ReleaseNumber":13,"RowId":null,"Attributes":{"Address":"Вешняковская улица, дом 16, блок Б","global_id":20441021,"AdmArea":"Восточный административный округ","District":"район Вешняки","TotalParkingSlots":100,"ConstructionBegin":"март 2010 года","ConstructionEnd":"июнь 2011 года"}},"type":"Feature"},{"geometry":{"coordinates":[37.679254596699,55.784437170072],"type":"Point"},"properties":{"DatasetId":588,"VersionNumber":4,"ReleaseNumber":13,"RowId":null,"Attributes":{"Address":"улица Жебрунова, 6Б","global_id":20441022,"AdmArea":"Восточный административный округ","District":"район Сокольники","TotalParkingSlots":369,"ConstructionBegin":"октябрь 2010 года","ConstructionEnd":"август 2012 года"}},"type":"Feature"},{"geometry":{"coordinates":[37.829129995584,55.745685350395],"type":"Point"},"properties":{"DatasetId":588,"VersionNumber":4,"ReleaseNumber":13,"RowId":null,"Attributes":{"Address":"Кетчерская улица, дом 5А","global_id":20441023,"AdmArea":"Восточный административный округ","District":"район Вешняки","TotalParkingSlots":292,"ConstructionBegin":"июнь 2010 года","ConstructionEnd":"май 2012 года"}},"type":"Feature"},{"geometry":{"coordinates":[37.839145569093,55.782812095021],"type":"Point"},"properties":{"DatasetId":588,"VersionNumber":4,"ReleaseNumber":13,"RowId":null,"Attributes":{"Address":"Малый Купавенский проезд, дом 14А","global_id":20441024,"AdmArea":"Восточный административный округ","District":"район Ивановское","TotalParkingSlots":350,"ConstructionBegin":"февраль 2010 года","ConstructionEnd":"декабрь 2011 года"}},"type":"Feature"},{"geometry":{"coordinates":[37.749330344092,55.825775619365],"type":"Point"},"properties":{"DatasetId":588,"VersionNumber":4,"ReleaseNumber":13,"RowId":null,"Attributes":{"Address":"Открытое шоссе, дом 19Б","global_id":20441025,"AdmArea":"Восточный административный округ","District":"район Богородское","TotalParkingSlots":207,"ConstructionBegin":"март 2010 года","ConstructionEnd":"март 2011 года"}},"type":"Feature"},{"geometry":{"coordinates":[37.768755941669,55.829173471152],"type":"Point"},"properties":{"DatasetId":588,"VersionNumber":4,"ReleaseNumber":13,"RowId":null,"Attributes":{"Address":"Открытое шоссе, дом 30А","global_id":20441026,"AdmArea":"Восточный административный округ","District":"район Богородское","TotalParkingSlots":95,"ConstructionBegin":"июль 2010 года","ConstructionEnd":"апрель 2011 года"}},"type":"Feature"},{"geometry":{"coordinates":[37.830304569221,55.813928883239],"type":"Point"},"properties":{"DatasetId":588,"VersionNumber":4,"ReleaseNumber":13,"RowId":null,"Attributes":{"Address":"Хабаровская улица, дом 2А","global_id":20441027,"AdmArea":"Восточный административный округ","District":"район Гольяново","TotalParkingSlots":248,"ConstructionBegin":"октябрь 2010 года","ConstructionEnd":"октябрь 2012 года"}},"type":"Feature"},{"geometry":{"coordinates":[37.753978898722,55.754103900536],"type":"Point"},"properties":{"DatasetId":588,"VersionNumber":4,"ReleaseNumber":13,"RowId":null,"Attributes":{"Address":"Электродная улица, дом 5","global_id":20441028,"AdmArea":"Восточный административный округ","District":"район Перово","TotalParkingSlots":190,"ConstructionBegin":"январь 2011 года","ConstructionEnd":"март 2013 года"}},"type":"Feature"},{"geometry":{"coordinates":[37.685069714362,55.699395143838],"type":"Point"},"properties":{"DatasetId":588,"VersionNumber":4,"ReleaseNumber":13,"RowId":null,"Attributes":{"Address":"2-й Южнопортовый проезд, дом 13, корпус 2","global_id":20441029,"AdmArea":"Юго-Восточный административный округ","District":"район Печатники","TotalParkingSlots":250,"ConstructionBegin":"март 2010 года","ConstructionEnd":"декабрь 2011 года"}},"type":"Feature"},{"geometry":{"coordinates":[37.685898264101,55.699857627308],"type":"Point"},"properties":{"DatasetId":588,"VersionNumber":4,"ReleaseNumber":13,"RowId":null,"Attributes":{"Address":"2-й Южнопортовый проезд, дом 15, корпус 2","global_id":20441030,"AdmArea":"Юго-Восточный административный округ","District":"район Печатники","TotalParkingSlots":253,"ConstructionBegin":"март 2010 года","ConstructionEnd":"декабрь 2011 года"}},"type":"Feature"},{"geometry":{"coordinates":[37.718685637677,55.743501435221],"type":"Point"},"properties":{"DatasetId":588,"VersionNumber":4,"ReleaseNumber":13,"RowId":null,"Attributes":{"Address":"2-й Кабельный проезд, дом 11","global_id":20441031,"AdmArea":"Юго-Восточный административный округ","District":"район Лефортово","TotalParkingSlots":154,"ConstructionBegin":"октябрь 2010 года","ConstructionEnd":"декабрь 2011 года"}},"type":"Feature"},{"geometry":{"coordinates":[37.851300917185,55.694277806999],"type":"Point"},"properties":{"DatasetId":588,"VersionNumber":4,"ReleaseNumber":13,"RowId":null,"Attributes":{"Address":"Привольная улица, дом 33, корпус 1","global_id":20441032,"AdmArea":"Юго-Восточный административный округ","District":"район Выхино-Жулебино","TotalParkingSlots":700,"ConstructionBegin":"март 2010 года","ConstructionEnd":"декабрь 2011 года"}},"type":"Feature"},{"geometry":{"coordinates":[37.852141251322,55.694516521401],"type":"Point"},"properties":{"DatasetId":588,"VersionNumber":4,"ReleaseNumber":13,"RowId":null,"Attributes":{"Address":"Привольная улица, дом 33, корпус 2","global_id":20441033,"AdmArea":"Юго-Восточный административный округ","District":"район Выхино-Жулебино","TotalParkingSlots":313,"ConstructionBegin":"март 2010 года","ConstructionEnd":"декабрь 2011 года"}},"type":"Feature"},{"geometry":{"coordinates":[37.788389459571,55.672130164183],"type":"Point"},"properties":{"DatasetId":588,"VersionNumber":4,"ReleaseNumber":13,"RowId":null,"Attributes":{"Address":"Краснодарский проезд, дом 12","global_id":20441034,"AdmArea":"Юго-Восточный административный округ","District":"район Люблино","TotalParkingSlots":482,"ConstructionBegin":"март 2010 года","ConstructionEnd":"февраль 2011 года"}},"type":"Feature"},{"geometry":{"coordinates":[37.783525900967,55.668307428678],"type":"Point"},"properties":{"DatasetId":588,"VersionNumber":4,"ReleaseNumber":13,"RowId":null,"Attributes":{"Address":"Краснодарский проезд, дом 2","global_id":20441035,"AdmArea":"Юго-Восточный административный округ","District":"район Люблино","TotalParkingSlots":494,"ConstructionBegin":"март 2010 года","ConstructionEnd":"февраль 2011 года"}},"type":"Feature"},{"geometry":{"coordinates":[37.78683714204,55.670384676118],"type":"Point"},"properties":{"DatasetId":588,"VersionNumber":4,"ReleaseNumber":13,"RowId":null,"Attributes":{"Address":"Краснодарский проезд, дом 8","global_id":20441036,"AdmArea":"Юго-Восточный административный округ","District":"район Люблино","TotalParkingSlots":494,"ConstructionBegin":"март 2010 года","ConstructionEnd":"февраль 2011 года"}},"type":"Feature"},{"geometry":{"coordinates":[37.778012545289,55.664956244493],"type":"Point"},"properties":{"DatasetId":588,"VersionNumber":4,"ReleaseNumber":13,"RowId":null,"Attributes":{"Address":"улица Верхние Поля, дом 44","global_id":20441037,"AdmArea":"Юго-Восточный административный округ","District":"район Марьино","TotalParkingSlots":322,"ConstructionBegin":"июнь 2010 года","ConstructionEnd":"июнь 2011 года"}},"type":"Feature"},{"geometry":{"coordinates":[37.759745678059,55.673028348867],"type":"Point"},"properties":{"DatasetId":588,"VersionNumber":4,"ReleaseNumber":13,"RowId":null,"Attributes":{"Address":"Новороссийская улица, 23, корпус 1","global_id":20441038,"AdmArea":"Юго-Восточный административный округ","District":"район Люблино","TotalParkingSlots":397,"ConstructionBegin":"октябрь 2010 года","ConstructionEnd":"июнь 2014 года"}},"type":"Feature"},{"geometry":{"coordinates":[37.838854727138,55.684581243898],"type":"Point"},"properties":{"DatasetId":588,"VersionNumber":4,"ReleaseNumber":13,"RowId":null,"Attributes":{"Address":"Привольная улица, дом 54, корпус 2","global_id":20441046,"AdmArea":"Юго-Восточный административный округ","District":"район Выхино-Жулебино","TotalParkingSlots":450,"ConstructionBegin":"март 2010 года","ConstructionEnd":"август 2011 года"}},"type":"Feature"},{"geometry":{"coordinates":[37.79790134647,55.709072774745],"type":"Point"},"properties":{"DatasetId":588,"VersionNumber":4,"ReleaseNumber":13,"RowId":null,"Attributes":{"Address":"Сормовский проезд, дом 7, корпус 2","global_id":20441047,"AdmArea":"Юго-Восточный административный округ","District":"район Выхино-Жулебино","TotalParkingSlots":315,"ConstructionBegin":"апрель 2010 года","ConstructionEnd":"июль 2011 года"}},"type":"Feature"},{"geometry":{"coordinates":[37.772459303135,55.634804446172],"type":"Point"},"properties":{"DatasetId":588,"VersionNumber":4,"ReleaseNumber":13,"RowId":null,"Attributes":{"Address":"Братеевская улица, дом 22А","global_id":20441049,"AdmArea":"Южный административный округ","District":"район Братеево","TotalParkingSlots":328,"ConstructionBegin":"сентябрь 2010 года","ConstructionEnd":"июль 2013 года"}},"type":"Feature"},{"geometry":{"coordinates":[37.771274627605,55.634269840306],"type":"Point"},"properties":{"DatasetId":588,"VersionNumber":4,"ReleaseNumber":13,"RowId":null,"Attributes":{"Address":"Братеевская улица, 20, корпус 2","global_id":20441050,"AdmArea":"Южный административный округ","District":"район Братеево","TotalParkingSlots":397,"ConstructionBegin":"январь 2011 года","ConstructionEnd":"июль 2015 года"}},"type":"Feature"},{"geometry":{"coordinates":[37.772142195818,55.636572597363],"type":"Point"},"properties":{"DatasetId":588,"VersionNumber":4,"ReleaseNumber":13,"RowId":null,"Attributes":{"Address":"Братеевская улица, дом 24, корпус 1","global_id":20441051,"AdmArea":"Южный административный округ","District":"район Братеево","TotalParkingSlots":472,"ConstructionBegin":"сентябрь 2010 года","ConstructionEnd":"май 2011 года"}},"type":"Feature"},{"geometry":{"coordinates":[37.735029234176,55.611460306112],"type":"Point"},"properties":{"DatasetId":588,"VersionNumber":4,"ReleaseNumber":13,"RowId":null,"Attributes":{"Address":"Воронежская улица, дом 13, корпус 2","global_id":20441052,"AdmArea":"Южный административный округ","District":"район Орехово-Борисово Южное","TotalParkingSlots":517,"ConstructionBegin":"ноябрь 2010 года","ConstructionEnd":"март 2013 года"}},"type":"Feature"},{"geometry":{"coordinates":[37.711866348166,55.605410520305],"type":"Point"},"properties":{"DatasetId":588,"VersionNumber":4,"ReleaseNumber":13,"RowId":null,"Attributes":{"Address":"Домодедовская улица, дом 26","global_id":20441053,"AdmArea":"Южный административный округ","District":"район Орехово-Борисово Южное","TotalParkingSlots":91,"ConstructionBegin":"июль 2010 года","ConstructionEnd":"август 2012 года"}},"type":"Feature"},{"geometry":{"coordinates":[37.638611164095,55.711646833949],"type":"Point"},"properties":{"DatasetId":588,"VersionNumber":4,"ReleaseNumber":13,"RowId":null,"Attributes":{"Address":"2-й Павелецкий проезд, дом 14","global_id":20441054,"AdmArea":"Южный административный округ","District":"Даниловский район","TotalParkingSlots":120,"ConstructionBegin":"ноябрь 2010 года","ConstructionEnd":"сентябрь 2012 года"}},"type":"Feature"},{"geometry":{"coordinates":[37.718483916234,55.605330263921],"type":"Point"},"properties":{"DatasetId":588,"VersionNumber":4,"ReleaseNumber":13,"RowId":null,"Attributes":{"Address":"Каширское шоссе, дом 122, корпус 2","global_id":20441055,"AdmArea":"Южный административный округ","District":"район Орехово-Борисово Южное","TotalParkingSlots":100,"ConstructionBegin":"май 2011 года","ConstructionEnd":"март 2014 года"}},"type":"Feature"},{"geometry":{"coordinates":[37.697771272859,55.619971422582],"type":"Point"},"properties":{"DatasetId":588,"VersionNumber":4,"ReleaseNumber":13,"RowId":null,"Attributes":{"Address":"улица Маршала Захарова, дом 23, корпус 1","global_id":20441056,"AdmArea":"Южный административный округ","District":"район Орехово-Борисово Северное","TotalParkingSlots":300,"ConstructionBegin":"март 2010 года","ConstructionEnd":"июль 2012 года"}},"type":"Feature"},{"geometry":{"coordinates":[37.649417465412,55.644734837295],"type":"Point"},"properties":{"DatasetId":588,"VersionNumber":4,"ReleaseNumber":13,"RowId":null,"Attributes":{"Address":"улица Москворечье, 2, корпус 3","global_id":20441057,"AdmArea":"Южный административный округ","District":"район Москворечье-Сабурово","TotalParkingSlots":182,"ConstructionBegin":"ноябрь 2011 года","ConstructionEnd":"август 2012 года"}},"type":"Feature"},{"geometry":{"coordinates":[37.615167951045,55.594572572146],"type":"Point"},"properties":{"DatasetId":588,"VersionNumber":4,"ReleaseNumber":13,"RowId":null,"Attributes":{"Address":"Россошанская улица, дом 13, корпус 4","global_id":20441058,"AdmArea":"Южный административный округ","District":"район Чертаново Южное","TotalParkingSlots":42,"ConstructionBegin":"июнь 2010 года","ConstructionEnd":"апрель 2012 года"}},"type":"Feature"},{"geometry":{"coordinates":[37.64762362162,55.632565148501],"type":"Point"},"properties":{"DatasetId":588,"VersionNumber":4,"ReleaseNumber":13,"RowId":null,"Attributes":{"Address":"улица Бехтерева, дом 14","global_id":20441059,"AdmArea":"Южный административный округ","District":"район Царицыно","TotalParkingSlots":326,"ConstructionBegin":"июль 2010 года","ConstructionEnd":"сентябрь 2012 года"}},"type":"Feature"},{"geometry":{"coordinates":[37.560695307263,55.567944610727],"type":"Point"},"properties":{"DatasetId":588,"VersionNumber":4,"ReleaseNumber":13,"RowId":null,"Attributes":{"Address":"Куликовская улица, дом 22","global_id":20441061,"AdmArea":"Юго-Западный административный округ","District":"район Северное Бутово","TotalParkingSlots":259,"ConstructionBegin":"сентябрь 2010 года","ConstructionEnd":"апрель 2014 года"}},"type":"Feature"},{"geometry":{"coordinates":[37.521099108434,55.65525208166],"type":"Point"},"properties":{"DatasetId":588,"VersionNumber":4,"ReleaseNumber":13,"RowId":null,"Attributes":{"Address":"Академика Волгина улица, дом 2, корпус 3","global_id":20441062,"AdmArea":"Юго-Западный административный округ","District":"Обручевский район","TotalParkingSlots":165,"ConstructionBegin":"сентябрь 2010 года","ConstructionEnd":"март 2015 года"}},"type":"Feature"},{"geometry":{"coordinates":[37.573294349138,55.561154159911],"type":"Point"},"properties":{"DatasetId":588,"VersionNumber":4,"ReleaseNumber":13,"RowId":null,"Attributes":{"Address":"бульвар Дмитрия Донского, дом 21","global_id":20441063,"AdmArea":"Юго-Западный административный округ","District":"район Северное Бутово","TotalParkingSlots":225,"ConstructionBegin":"апрель 2010 года","ConstructionEnd":"декабрь 2011 года"}},"type":"Feature"},{"geometry":{"coordinates":[37.589287066623,55.575646293664],"type":"Point"},"properties":{"DatasetId":588,"VersionNumber":4,"ReleaseNumber":13,"RowId":null,"Attributes":{"Address":"Старобитцевская улица, 14","global_id":20441064,"AdmArea":"Юго-Западный административный округ","District":"район Северное Бутово","TotalParkingSlots":225,"ConstructionBegin":"сентябрь 2010 года","ConstructionEnd":"апрель 2015 года"}},"type":"Feature"},{"geometry":{"coordinates":[37.535806976941,55.532913145752],"type":"Point"},"properties":{"DatasetId":588,"VersionNumber":4,"ReleaseNumber":13,"RowId":null,"Attributes":{"Address":"Чечёрский проезд, дом 9А","global_id":20441065,"AdmArea":"Юго-Западный административный округ","District":"район Южное Бутово","TotalParkingSlots":525,"ConstructionBegin":"январь 2011 года","ConstructionEnd":"май 2013 года"}},"type":"Feature"},{"geometry":{"coordinates":[37.52239249998,55.528439926548],"type":"Point"},"properties":{"DatasetId":588,"VersionNumber":4,"ReleaseNumber":13,"RowId":null,"Attributes":{"Address":"Чечёрский проезд, дом 31, строение 1","global_id":20441066,"AdmArea":"Юго-Западный административный округ","District":"район Южное Бутово","TotalParkingSlots":24,"ConstructionBegin":"февраль 2011 года","ConstructionEnd":"октябрь 2012 года"}},"type":"Feature"},{"geometry":{"coordinates":[37.578311039365,55.506865004667],"type":"Point"},"properties":{"DatasetId":588,"VersionNumber":4,"ReleaseNumber":13,"RowId":null,"Attributes":{"Address":"улица Маршала Савицкого, дом 5","global_id":20441067,"AdmArea":"Юго-Западный административный округ","District":"район Южное Бутово","TotalParkingSlots":488,"ConstructionBegin":"апрель 2010 года","ConstructionEnd":"май 2012 года"}},"type":"Feature"},{"geometry":{"coordinates":[37.57661213183,55.505805801187],"type":"Point"},"properties":{"DatasetId":588,"VersionNumber":4,"ReleaseNumber":13,"RowId":null,"Attributes":{"Address":"улица Маршала Савицкого, дом 4","global_id":20441068,"AdmArea":"Юго-Западный административный округ","District":"район Южное Бутово","TotalParkingSlots":487,"ConstructionBegin":"март 2010 года","ConstructionEnd":"декабрь 2011 года"}},"type":"Feature"},{"geometry":{"coordinates":[37.574631940292,55.500690417859],"type":"Point"},"properties":{"DatasetId":588,"VersionNumber":4,"ReleaseNumber":13,"RowId":null,"Attributes":{"Address":"улица Брусилова, дом 3","global_id":20441069,"AdmArea":"Юго-Западный административный округ","District":"район Южное Бутово","TotalParkingSlots":480,"ConstructionBegin":"март 2010 года","ConstructionEnd":"декабрь 2011 года"}},"type":"Feature"},{"geometry":{"coordinates":[37.588451410835,55.500796538702],"type":"Point"},"properties":{"DatasetId":588,"VersionNumber":4,"ReleaseNumber":13,"RowId":null,"Attributes":{"Address":"улица Брусилова, дом 23","global_id":20441070,"AdmArea":"Юго-Западный административный округ","District":"район Южное Бутово","TotalParkingSlots":487,"ConstructionBegin":"март 2010 года","ConstructionEnd":"июнь 2011 года"}},"type":"Feature"},{"geometry":{"coordinates":[37.597355329837,55.50054256549],"type":"Point"},"properties":{"DatasetId":588,"VersionNumber":4,"ReleaseNumber":13,"RowId":null,"Attributes":{"Address":"улица Брусилова, дом 35","global_id":20441071,"AdmArea":"Юго-Западный административный округ","District":"район Южное Бутово","TotalParkingSlots":334,"ConstructionBegin":"март 2010 года","ConstructionEnd":"май 2011 года"}},"type":"Feature"},{"geometry":{"coordinates":[37.600542823354,55.50136076126],"type":"Point"},"properties":{"DatasetId":588,"VersionNumber":4,"ReleaseNumber":13,"RowId":null,"Attributes":{"Address":"улица Брусилова, дом 39","global_id":20441072,"AdmArea":"Юго-Западный административный округ","District":"район Южное Бутово","TotalParkingSlots":524,"ConstructionBegin":"август 2010 года","ConstructionEnd":"июль 2011 года"}},"type":"Feature"},{"geometry":{"coordinates":[37.503993250117,55.541219283203],"type":"Point"},"properties":{"DatasetId":588,"VersionNumber":4,"ReleaseNumber":13,"RowId":null,"Attributes":{"Address":"улица Академика Семёнова, дом 19, строение 1","global_id":20441073,"AdmArea":"Юго-Западный административный округ","District":"район Южное Бутово","TotalParkingSlots":96,"ConstructionBegin":"июль 2010 года","ConstructionEnd":"май 2011 года"}},"type":"Feature"},{"geometry":{"coordinates":[37.506816971846,55.541896322791],"type":"Point"},"properties":{"DatasetId":588,"VersionNumber":4,"ReleaseNumber":13,"RowId":null,"Attributes":{"Address":"улица Академика Семёнова, дом 13, строение 1","global_id":20441074,"AdmArea":"Юго-Западный административный округ","District":"район Южное Бутово","TotalParkingSlots":99,"ConstructionBegin":"июль 2010 года","ConstructionEnd":"декабрь 2011 года"}},"type":"Feature"},{"geometry":{"coordinates":[37.509451359056,55.542858485007],"type":"Point"},"properties":{"DatasetId":588,"VersionNumber":4,"ReleaseNumber":13,"RowId":null,"Attributes":{"Address":"улица Академика Семёнова, дом 7, строение 1","global_id":20441075,"AdmArea":"Юго-Западный административный округ","District":"район Южное Бутово","TotalParkingSlots":99,"ConstructionBegin":"июль 2010 года","ConstructionEnd":"март 2015 года"}},"type":"Feature"},{"geometry":{"coordinates":[37.560327470886,55.542663385187],"type":"Point"},"properties":{"DatasetId":588,"VersionNumber":4,"ReleaseNumber":13,"RowId":null,"Attributes":{"Address":"Изюмская улица, дом 63","global_id":20441076,"AdmArea":"Юго-Западный административный округ","District":"район Южное Бутово","TotalParkingSlots":435,"ConstructionBegin":"апрель 2010 года","ConstructionEnd":"октябрь 2013 года"}},"type":"Feature"},{"geometry":{"coordinates":[37.51605755529,55.541268141262],"type":"Point"},"properties":{"DatasetId":588,"VersionNumber":4,"ReleaseNumber":13,"RowId":null,"Attributes":{"Address":"улица Адмирала Лазарева, дом 49","global_id":20441077,"AdmArea":"Юго-Западный административный округ","District":"район Южное Бутово","TotalParkingSlots":470,"ConstructionBegin":"март 2010 года","ConstructionEnd":"июнь 2011 года"}},"type":"Feature"},{"geometry":{"coordinates":[37.581995650786,55.537869811538],"type":"Point"},"properties":{"DatasetId":588,"VersionNumber":4,"ReleaseNumber":13,"RowId":null,"Attributes":{"Address":"Варшавское шоссе, дом 204","global_id":20441078,"AdmArea":"Юго-Западный административный округ","District":"район Южное Бутово","TotalParkingSlots":267,"ConstructionBegin":"апрель 2010 года","ConstructionEnd":"июнь 2011 года"}},"type":"Feature"},{"geometry":{"coordinates":[37.39812594948,55.737088051019],"type":"Point"},"properties":{"DatasetId":588,"VersionNumber":4,"ReleaseNumber":13,"RowId":null,"Attributes":{"Address":"Бобруйская улица, дом 11","global_id":20441079,"AdmArea":"Западный административный округ","District":"район Кунцево","TotalParkingSlots":461,"ConstructionBegin":"март 2010 года","ConstructionEnd":"май 2011 года"}},"type":"Feature"},{"geometry":{"coordinates":[37.194443420692,55.602608158457],"type":"Point"},"properties":{"DatasetId":588,"VersionNumber":4,"ReleaseNumber":13,"RowId":null,"Attributes":{"Address":"Советская улица, дом 20","global_id":20441080,"AdmArea":"Западный административный округ","District":"район Внуково","TotalParkingSlots":121,"ConstructionBegin":"февраль 2012 года","ConstructionEnd":"декабрь 2013 года"}},"type":"Feature"},{"geometry":{"coordinates":[37.396191978943,55.657309825397],"type":"Point"},"properties":{"DatasetId":588,"VersionNumber":4,"ReleaseNumber":13,"RowId":null,"Attributes":{"Address":"Боровское шоссе дом 6, корпус 4","global_id":20441081,"AdmArea":"Западный административный округ","District":"район Солнцево","TotalParkingSlots":538,"ConstructionBegin":"июнь 2010 года","ConstructionEnd":"май 2013 года"}},"type":"Feature"},{"geometry":{"coordinates":[37.398110254321,55.657843233248],"type":"Point"},"properties":{"DatasetId":588,"VersionNumber":4,"ReleaseNumber":13,"RowId":null,"Attributes":{"Address":"Боровское шоссе, дом 6, корпус 3","global_id":20441082,"AdmArea":"Западный административный округ","District":"район Солнцево","TotalParkingSlots":554,"ConstructionBegin":"июнь 2010 года","ConstructionEnd":"май 2013 года"}},"type":"Feature"},{"geometry":{"coordinates":[37.404492791435,55.659395623469],"type":"Point"},"properties":{"DatasetId":588,"VersionNumber":4,"ReleaseNumber":13,"RowId":null,"Attributes":{"Address":"Боровское шоссе, дом 6, корпус 2","global_id":20441083,"AdmArea":"Западный административный округ","District":"район Солнцево","TotalParkingSlots":345,"ConstructionBegin":"июнь 2010 года","ConstructionEnd":"июнь 2013 года"}},"type":"Feature"},{"geometry":{"coordinates":[37.40595280338,55.659735956088],"type":"Point"},"properties":{"DatasetId":588,"VersionNumber":4,"ReleaseNumber":13,"RowId":null,"Attributes":{"Address":"Боровское шоссе, дом 6, корпус 1","global_id":20441084,"AdmArea":"Западный административный округ","District":"район Солнцево","TotalParkingSlots":402,"ConstructionBegin":"апрель 2010 года","ConstructionEnd":"июнь 2013 года"}},"type":"Feature"},{"geometry":{"coordinates":[37.36582030275,55.635773050515],"type":"Point"},"properties":{"DatasetId":588,"VersionNumber":4,"ReleaseNumber":13,"RowId":null,"Attributes":{"Address":"Новоорловская улица, 5, корпус 1","global_id":20441085,"AdmArea":"Западный административный округ","District":"район Ново-Переделкино","TotalParkingSlots":329,"ConstructionBegin":"июнь 2010 года","ConstructionEnd":"июнь 2014 года"}},"type":"Feature"},{"geometry":{"coordinates":[37.515206880531,55.668941963551],"type":"Point"},"properties":{"DatasetId":588,"VersionNumber":4,"ReleaseNumber":13,"RowId":null,"Attributes":{"Address":"Ленинский проспект, дом 100","global_id":20441087,"AdmArea":"Западный административный округ","District":"район Проспект Вернадского","TotalParkingSlots":60,"ConstructionBegin":"февраль 2010 года","ConstructionEnd":"июнь 2013 года"}},"type":"Feature"},{"geometry":{"coordinates":[37.412968021698,55.726413345576],"type":"Point"},"properties":{"DatasetId":588,"VersionNumber":4,"ReleaseNumber":13,"RowId":null,"Attributes":{"Address":"улица Маршала Неделина, дом 29","global_id":20441088,"AdmArea":"Западный административный округ","District":"Можайский район","TotalParkingSlots":673,"ConstructionBegin":"март 2010 года","ConstructionEnd":"ноябрь 2011 года"}},"type":"Feature"},{"geometry":{"coordinates":[37.382831563815,55.641723753122],"type":"Point"},"properties":{"DatasetId":588,"VersionNumber":4,"ReleaseNumber":13,"RowId":null,"Attributes":{"Address":"Производственная улица, 14, корпус 1","global_id":20441090,"AdmArea":"Западный административный округ","District":"район Солнцево","TotalParkingSlots":312,"ConstructionBegin":"март 2010 года","ConstructionEnd":"июнь 2014 года"}},"type":"Feature"},{"geometry":{"coordinates":[37.410984114401,55.708341072572],"type":"Point"},"properties":{"DatasetId":588,"VersionNumber":4,"ReleaseNumber":13,"RowId":null,"Attributes":{"Address":"Витебская улица, дом 11","global_id":20441091,"AdmArea":"Западный административный округ","District":"Можайский район","TotalParkingSlots":805,"ConstructionBegin":"март 2010 года","ConstructionEnd":"август 2011 года"}},"type":"Feature"},{"geometry":{"coordinates":[37.339278767738,55.635929600311],"type":"Point"},"properties":{"DatasetId":588,"VersionNumber":4,"ReleaseNumber":13,"RowId":null,"Attributes":{"Address":"улица Федосьино, дом 3","global_id":20441092,"AdmArea":"Западный административный округ","District":"район Ново-Переделкино","TotalParkingSlots":298,"ConstructionBegin":"апрель 2010 года","ConstructionEnd":"август 2012 года"}},"type":"Feature"},{"geometry":{"coordinates":[37.348829515724,55.858384184162],"type":"Point"},"properties":{"DatasetId":588,"VersionNumber":4,"ReleaseNumber":13,"RowId":null,"Attributes":{"Address":"улица Барышиха, дом 45","global_id":20441093,"AdmArea":"Северо-Западный административный округ","District":"район Митино","TotalParkingSlots":275,"ConstructionBegin":"май 2010 года","ConstructionEnd":"декабрь 2011 года"}},"type":"Feature"},{"geometry":{"coordinates":[37.347792430021,55.833541869255],"type":"Point"},"properties":{"DatasetId":588,"VersionNumber":4,"ReleaseNumber":13,"RowId":null,"Attributes":{"Address":"Волоцкой переулок, дом 3","global_id":20441094,"AdmArea":"Северо-Западный административный округ","District":"район Митино","TotalParkingSlots":970,"ConstructionBegin":"май 2010 года","ConstructionEnd":"май 2013 года"}},"type":"Feature"},{"geometry":{"coordinates":[37.350522826732,55.826159215529],"type":"Point"},"properties":{"DatasetId":588,"VersionNumber":4,"ReleaseNumber":13,"RowId":null,"Attributes":{"Address":"улица Генерала Белобородова, дом 38","global_id":20441095,"AdmArea":"Северо-Западный административный округ","District":"район Митино","TotalParkingSlots":239,"ConstructionBegin":"май 2010 года","ConstructionEnd":"июль 2011 года"}},"type":"Feature"},{"geometry":{"coordinates":[37.350345309262,55.839517156022],"type":"Point"},"properties":{"DatasetId":588,"VersionNumber":4,"ReleaseNumber":13,"RowId":null,"Attributes":{"Address":"Дубравная улица, дом 53","global_id":20441096,"AdmArea":"Северо-Западный административный округ","District":"район Митино","TotalParkingSlots":799,"ConstructionBegin":"март 2010 года","ConstructionEnd":"декабрь 2011 года"}},"type":"Feature"},{"geometry":{"coordinates":[37.409377188814,55.885982707622],"type":"Point"},"properties":{"DatasetId":588,"VersionNumber":4,"ReleaseNumber":13,"RowId":null,"Attributes":{"Address":"Новокуркинское шоссе, дом 20","global_id":20441097,"AdmArea":"Северо-Западный административный округ","District":"район Куркино","TotalParkingSlots":284,"ConstructionBegin":"декабрь 2010 года","ConstructionEnd":"октябрь 2012 года"}},"type":"Feature"},{"geometry":{"coordinates":[37.389285266371,55.79210862166],"type":"Point"},"properties":{"DatasetId":588,"VersionNumber":4,"ReleaseNumber":13,"RowId":null,"Attributes":{"Address":"Проектируемый проезд № 607, владение 14, корпус 2","global_id":20441098,"AdmArea":"Северо-Западный административный округ","District":"район Строгино","TotalParkingSlots":978,"ConstructionBegin":"май 2010 года","ConstructionEnd":"июнь 2014 года"}},"type":"Feature"},{"geometry":{"coordinates":[37.401576063733,55.795374797495],"type":"Point"},"properties":{"DatasetId":588,"VersionNumber":4,"ReleaseNumber":13,"RowId":null,"Attributes":{"Address":"Проектируемый проезд № 607, дом 19","global_id":20441099,"AdmArea":"Северо-Западный административный округ","District":"район Строгино","TotalParkingSlots":240,"ConstructionBegin":"июль 2010 года","ConstructionEnd":"ноябрь 2011 года"}},"type":"Feature"},{"geometry":{"coordinates":[37.374511475258,55.845391598871],"type":"Point"},"properties":{"DatasetId":588,"VersionNumber":4,"ReleaseNumber":13,"RowId":null,"Attributes":{"Address":"Пятницкое шоссе, дом 19, корпус 1","global_id":20441100,"AdmArea":"Северо-Западный административный округ","District":"район Митино","TotalParkingSlots":368,"ConstructionBegin":"март 2010 года","ConstructionEnd":"ноябрь 2011 года"}},"type":"Feature"},{"geometry":{"coordinates":[37.390729016334,55.793225644664],"type":"Point"},"properties":{"DatasetId":588,"VersionNumber":4,"ReleaseNumber":13,"RowId":null,"Attributes":{"Address":"улица Твардовского, дом 8, корпус 4","global_id":20441101,"AdmArea":"Северо-Западный административный округ","District":"район Строгино","TotalParkingSlots":676,"ConstructionBegin":"май 2010 года","ConstructionEnd":"декабрь 2011 года"}},"type":"Feature"},{"geometry":{"coordinates":[37.390987942476,55.89918532335],"type":"Point"},"properties":{"DatasetId":588,"VersionNumber":4,"ReleaseNumber":13,"RowId":null,"Attributes":{"Address":"Юровская улица, дом 103","global_id":20441102,"AdmArea":"Северо-Западный административный округ","District":"район Куркино","TotalParkingSlots":520,"ConstructionBegin":"июль 2010 года","ConstructionEnd":"декабрь 2011 года"}},"type":"Feature"},{"geometry":{"coordinates":[37.197369842079,56.006456293716],"type":"Point"},"properties":{"DatasetId":588,"VersionNumber":4,"ReleaseNumber":13,"RowId":null,"Attributes":{"Address":"2-й Западный проезд, дом 2Б","global_id":20441103,"AdmArea":"Зеленоградский административный округ","District":"район Матушкино","TotalParkingSlots":412,"ConstructionBegin":"июль 2010 года","ConstructionEnd":"декабрь 2011 года"}},"type":"Feature"},{"geometry":{"coordinates":[37.157211007814,55.989682435458],"type":"Point"},"properties":{"DatasetId":588,"VersionNumber":4,"ReleaseNumber":13,"RowId":null,"Attributes":{"Address":"Новокрюковская улица, дом 3А","global_id":20441104,"AdmArea":"Зеленоградский административный округ","District":"район Крюково","TotalParkingSlots":345,"ConstructionBegin":"июнь 2010 года","ConstructionEnd":"июнь 2013 года"}},"type":"Feature"},{"geometry":{"coordinates":[37.201901413625,56.000354873003],"type":"Point"},"properties":{"DatasetId":588,"VersionNumber":4,"ReleaseNumber":13,"RowId":null,"Attributes":{"Address":"город Зеленоград, корпус 226","global_id":20441105,"AdmArea":"Зеленоградский административный округ","District":"район Матушкино","TotalParkingSlots":267,"ConstructionBegin":"ноябрь 2010 года","ConstructionEnd":"сентябрь 2012 года"}},"type":"Feature"},{"geometry":{"coordinates":[37.184473015712,55.976457205664],"type":"Point"},"properties":{"DatasetId":588,"VersionNumber":4,"ReleaseNumber":13,"RowId":null,"Attributes":{"Address":"город Зеленоград, корпус 845","global_id":20441106,"AdmArea":"Зеленоградский административный округ","District":"район Старое Крюково","TotalParkingSlots":235,"ConstructionBegin":"март 2010 года","ConstructionEnd":"май 2011 года"}},"type":"Feature"},{"geometry":{"coordinates":[37.184959946121,55.976851176436],"type":"Point"},"properties":{"DatasetId":588,"VersionNumber":4,"ReleaseNumber":13,"RowId":null,"Attributes":{"Address":"город Зеленоград, корпус 846","global_id":20441107,"AdmArea":"Зеленоградский административный округ","District":"район Старое Крюково","TotalParkingSlots":281,"ConstructionBegin":"март 2010 года","ConstructionEnd":"май 2011 года"}},"type":"Feature"},{"geometry":{"coordinates":[37.162940638432,55.974899244101],"type":"Point"},"properties":{"DatasetId":588,"VersionNumber":4,"ReleaseNumber":13,"RowId":null,"Attributes":{"Address":"город Зеленоград, корпус 2006","global_id":20441108,"AdmArea":"Зеленоградский административный округ","District":"район Крюково","TotalParkingSlots":185,"ConstructionBegin":"март 2010 года","ConstructionEnd":"декабрь 2011 года"}},"type":"Feature"},{"geometry":{"coordinates":[37.164591843864,55.970816221857],"type":"Point"},"properties":{"DatasetId":588,"VersionNumber":4,"ReleaseNumber":13,"RowId":null,"Attributes":{"Address":"город Зеленоград, корпус 2021","global_id":20441109,"AdmArea":"Зеленоградский административный округ","District":"район Крюково","TotalParkingSlots":177,"ConstructionBegin":"апрель 2010 года","ConstructionEnd":"декабрь 2011 года"}},"type":"Feature"},{"geometry":{"coordinates":[37.169927055345,55.975463702109],"type":"Point"},"properties":{"DatasetId":588,"VersionNumber":4,"ReleaseNumber":13,"RowId":null,"Attributes":{"Address":"город Зеленоград, корпус 2025","global_id":20441110,"AdmArea":"Зеленоградский административный округ","District":"район Крюково","TotalParkingSlots":185,"ConstructionBegin":"март 2010 года","ConstructionEnd":"декабрь 2011 года"}},"type":"Feature"},{"geometry":{"coordinates":[37.174735468422,55.971633742327],"type":"Point"},"properties":{"DatasetId":588,"VersionNumber":4,"ReleaseNumber":13,"RowId":null,"Attributes":{"Address":"город Зеленоград, корпус 2036","global_id":20441111,"AdmArea":"Зеленоградский административный округ","District":"район Крюково","TotalParkingSlots":183,"ConstructionBegin":"апрель 2010 года","ConstructionEnd":"декабрь 2011 года"}},"type":"Feature"},{"geometry":{"coordinates":[37.69023809425,55.742673556619],"type":"Point"},"properties":{"DatasetId":588,"VersionNumber":4,"ReleaseNumber":13,"RowId":null,"Attributes":{"Address":"Международная улица, дом 23","global_id":20441113,"AdmArea":"Центральный административный округ","District":"Таганский район","TotalParkingSlots":258,"ConstructionBegin":"февраль 2010 года","ConstructionEnd":"декабрь 2010 года"}},"type":"Feature"},{"geometry":{"coordinates":[37.474711560816,55.868359366427],"type":"Point"},"properties":{"DatasetId":588,"VersionNumber":4,"ReleaseNumber":13,"RowId":null,"Attributes":{"Address":"Смольная улица, дом 42А","global_id":20441115,"AdmArea":"Северный административный округ","District":"район Левобережный","TotalParkingSlots":100,"ConstructionBegin":"февраль 2010 года","ConstructionEnd":"декабрь 2010 года"}},"type":"Feature"},{"geometry":{"coordinates":[37.533368954246,55.834349667777],"type":"Point"},"properties":{"DatasetId":588,"VersionNumber":4,"ReleaseNumber":13,"RowId":null,"Attributes":{"Address":"Большая Академическая улица, дом 43А","global_id":20441116,"AdmArea":"Северный административный округ","District":"район Коптево","TotalParkingSlots":100,"ConstructionBegin":"апрель 2010 года","ConstructionEnd":"декабрь 2010 года"}},"type":"Feature"},{"geometry":{"coordinates":[37.523979895313,55.836974876768],"type":"Point"},"properties":{"DatasetId":588,"VersionNumber":4,"ReleaseNumber":13,"RowId":null,"Attributes":{"Address":"3-й Михалковский переулок, дом 26А","global_id":20441117,"AdmArea":"Северный административный округ","District":"район Коптево","TotalParkingSlots":274,"ConstructionBegin":"март 2010 года","ConstructionEnd":"декабрь 2010 года"}},"type":"Feature"},{"geometry":{"coordinates":[37.779584175971,55.747631620292],"type":"Point"},"properties":{"DatasetId":588,"VersionNumber":4,"ReleaseNumber":13,"RowId":null,"Attributes":{"Address":"1-я Владимирская улица, дом 34А","global_id":20441118,"AdmArea":"Восточный административный округ","District":"район Перово","TotalParkingSlots":100,"ConstructionBegin":"апрель 2010 года","ConstructionEnd":"декабрь 2010 года"}},"type":"Feature"},{"geometry":{"coordinates":[37.726791812219,55.777684259867],"type":"Point"},"properties":{"DatasetId":588,"VersionNumber":4,"ReleaseNumber":13,"RowId":null,"Attributes":{"Address":"Кирпичная улица, дом 15","global_id":20441119,"AdmArea":"Восточный административный округ","District":"район Соколиная Гора","TotalParkingSlots":96,"ConstructionBegin":"июнь 2010 года","ConstructionEnd":"декабрь 2010 года"}},"type":"Feature"},{"geometry":{"coordinates":[37.727854031175,55.777611462023],"type":"Point"},"properties":{"DatasetId":588,"VersionNumber":4,"ReleaseNumber":13,"RowId":null,"Attributes":{"Address":"Кирпичная улица, дом 15, строение 1","global_id":20441120,"AdmArea":"Восточный административный округ","District":"район Соколиная Гора","TotalParkingSlots":91,"ConstructionBegin":"июнь 2010 года","ConstructionEnd":"декабрь 2010 года"}},"type":"Feature"},{"geometry":{"coordinates":[37.696465491256,55.798940498877],"type":"Point"},"properties":{"DatasetId":588,"VersionNumber":4,"ReleaseNumber":13,"RowId":null,"Attributes":{"Address":"Колодезный переулок, дом 3Б","global_id":20441121,"AdmArea":"Восточный административный округ","District":"район Сокольники","TotalParkingSlots":234,"ConstructionBegin":"май 2010 года","ConstructionEnd":"декабрь 2010 года"}},"type":"Feature"},{"geometry":{"coordinates":[37.561353057309,55.568828445448],"type":"Point"},"properties":{"DatasetId":588,"VersionNumber":4,"ReleaseNumber":13,"RowId":null,"Attributes":{"Address":"Куликовская улица, дом 18","global_id":20441122,"AdmArea":"Юго-Западный административный округ","District":"район Северное Бутово","TotalParkingSlots":234,"ConstructionBegin":"март 2010 года","ConstructionEnd":"август 2010 года"}},"type":"Feature"},{"geometry":{"coordinates":[37.537804420956,55.64867287834],"type":"Point"},"properties":{"DatasetId":588,"VersionNumber":4,"ReleaseNumber":13,"RowId":null,"Attributes":{"Address":"улица Бутлерова, дом 15А","global_id":20441123,"AdmArea":"Юго-Западный административный округ","District":"район Коньково","TotalParkingSlots":207,"ConstructionBegin":"март 2010 года","ConstructionEnd":"сентябрь 2010 года"}},"type":"Feature"},{"geometry":{"coordinates":[37.434410471185,55.856436193858],"type":"Point"},"properties":{"DatasetId":588,"VersionNumber":4,"ReleaseNumber":13,"RowId":null,"Attributes":{"Address":"улица Героев Панфиловцев, дом 7","global_id":20441124,"AdmArea":"Северо-Западный административный округ","District":"район Северное Тушино","TotalParkingSlots":96,"ConstructionBegin":"июнь 2010 года","ConstructionEnd":"сентябрь 2010 года"}},"type":"Feature"},{"geometry":{"coordinates":[37.430076945625,55.8575831387],"type":"Point"},"properties":{"DatasetId":588,"VersionNumber":4,"ReleaseNumber":13,"RowId":null,"Attributes":{"Address":"улица Героев Панфиловцев, дом 11","global_id":20441125,"AdmArea":"Северо-Западный административный округ","District":"район Северное Тушино","TotalParkingSlots":260,"ConstructionBegin":"май 2010 года","ConstructionEnd":"сентябрь 2010 года"}},"type":"Feature"},{"geometry":{"coordinates":[37.717342519564,55.691670545521],"type":"Point"},"properties":{"DatasetId":588,"VersionNumber":4,"ReleaseNumber":13,"RowId":null,"Attributes":{"Address":"улица Гурьянова, дом 6, корпус 3","global_id":20441127,"AdmArea":"Юго-Восточный административный округ","District":"район Печатники","TotalParkingSlots":270,"ConstructionBegin":"апрель 2010 года","ConstructionEnd":"сентябрь 2010 года"}},"type":"Feature"},{"geometry":{"coordinates":[37.659998861588,55.77787146034],"type":"Point"},"properties":{"DatasetId":588,"VersionNumber":4,"ReleaseNumber":13,"RowId":null,"Attributes":{"Address":"Краснопрудная улица, дом 3, строение 3\n","global_id":20443056,"AdmArea":"Центральный административный округ","District":"Красносельский район","TotalParkingSlots":124,"ConstructionBegin":"декабрь 2010 года","ConstructionEnd":"август 2012 года"}},"type":"Feature"},{"geometry":{"coordinates":[37.689247806919,55.743674831616],"type":"Point"},"properties":{"DatasetId":588,"VersionNumber":4,"ReleaseNumber":13,"RowId":null,"Attributes":{"Address":"Международная улица, дом 21","global_id":20443472,"AdmArea":"Центральный административный округ","District":"Таганский район","TotalParkingSlots":461,"ConstructionBegin":"февраль 2010 года","ConstructionEnd":"июль 2011 года"}},"type":"Feature"},{"geometry":{"coordinates":[37.556369011244,55.870233986081],"type":"Point"},"properties":{"DatasetId":588,"VersionNumber":4,"ReleaseNumber":13,"RowId":null,"Attributes":{"Address":"Бескудниковский бульвар, дом 28А, строение 1\n","global_id":20444460,"AdmArea":"Северный административный округ","District":"Бескудниковский район","TotalParkingSlots":99,"ConstructionBegin":"июль 2011 года","ConstructionEnd":"июнь 2014 года"}},"type":"Feature"},{"geometry":{"coordinates":[37.537665203412,55.875105011387],"type":"Point"},"properties":{"DatasetId":588,"VersionNumber":4,"ReleaseNumber":13,"RowId":null,"Attributes":{"Address":"Бескудниковский бульвар, дом 58А","global_id":20444461,"AdmArea":"Северный административный округ","District":"Бескудниковский район","TotalParkingSlots":300,"ConstructionBegin":"январь 2010 года","ConstructionEnd":"сентябрь 2011 года"}},"type":"Feature"},{"geometry":{"coordinates":[37.532601569675,55.780900775478],"type":"Point"},"properties":{"DatasetId":588,"VersionNumber":4,"ReleaseNumber":13,"RowId":null,"Attributes":{"Address":"улица Полины Осипенко, дом 16Б","global_id":20444462,"AdmArea":"Северный административный округ","District":"Хорошёвский район","TotalParkingSlots":100,"ConstructionBegin":"февраль 2010 года","ConstructionEnd":"декабрь 2011 года"}},"type":"Feature"},{"geometry":{"coordinates":[37.532164101479,55.780097969816],"type":"Point"},"properties":{"DatasetId":588,"VersionNumber":4,"ReleaseNumber":13,"RowId":null,"Attributes":{"Address":"улица Полины Осипенко, дом 16А","global_id":20444463,"AdmArea":"Северный административный округ","District":"Хорошёвский район","TotalParkingSlots":274,"ConstructionBegin":"апрель 2010 года","ConstructionEnd":"август 2012 года"}},"type":"Feature"},{"geometry":{"coordinates":[37.472823512231,55.871509601564],"type":"Point"},"properties":{"DatasetId":588,"VersionNumber":4,"ReleaseNumber":13,"RowId":null,"Attributes":{"Address":"Смольная улица, дом 48А","global_id":20444464,"AdmArea":"Северный административный округ","District":"район Левобережный","TotalParkingSlots":169,"ConstructionBegin":"март 2010 года","ConstructionEnd":"май 2011 года"}},"type":"Feature"},{"geometry":{"coordinates":[37.649451733825,55.841265733649],"type":"Point"},"properties":{"DatasetId":588,"VersionNumber":4,"ReleaseNumber":13,"RowId":null,"Attributes":{"Address":"улица Докукина, 16, корпус 3","global_id":20444465,"AdmArea":"Северо-Восточный административный округ","District":"район Ростокино","TotalParkingSlots":225,"ConstructionBegin":"март 2010 года","ConstructionEnd":"февраль 2011 года"}},"type":"Feature"},{"geometry":{"coordinates":[37.579476953136,55.878117607479],"type":"Point"},"properties":{"DatasetId":588,"VersionNumber":4,"ReleaseNumber":13,"RowId":null,"Attributes":{"Address":"Инженерная улица, дом 5, корпус 2","global_id":20444476,"AdmArea":"Северо-Восточный административный округ","District":"Алтуфьевский район","TotalParkingSlots":717,"ConstructionBegin":"июль 2010 года","ConstructionEnd":"август 2012 года"}},"type":"Feature"},{"geometry":{"coordinates":[37.606803703455,55.89089901133],"type":"Point"},"properties":{"DatasetId":588,"VersionNumber":4,"ReleaseNumber":13,"RowId":null,"Attributes":{"Address":"улица Конёнкова, дом 11, корпус 1","global_id":20444477,"AdmArea":"Северо-Восточный административный округ","District":"район Бибирево","TotalParkingSlots":100,"ConstructionBegin":"май 2010 года","ConstructionEnd":"май 2013 года"}},"type":"Feature"},{"geometry":{"coordinates":[37.64436073137,55.889886366434],"type":"Point"},"properties":{"DatasetId":588,"VersionNumber":4,"ReleaseNumber":13,"RowId":null,"Attributes":{"Address":"Полярная улица, 37, корпус 1","global_id":20444478,"AdmArea":"Северо-Восточный административный округ","District":"район Северное Медведково","TotalParkingSlots":189,"ConstructionBegin":"октябрь 2012 года","ConstructionEnd":"январь 2015 года"}},"type":"Feature"},{"geometry":{"coordinates":[37.709083882224,55.797628681067],"type":"Point"},"properties":{"DatasetId":588,"VersionNumber":4,"ReleaseNumber":13,"RowId":null,"Attributes":{"Address":"1-я улица Бухвостова, дом 1","global_id":20444479,"AdmArea":"Восточный административный округ","District":"район Преображенское","TotalParkingSlots":516,"ConstructionBegin":"февраль 2012 года","ConstructionEnd":"май 2013 года"}},"type":"Feature"},{"geometry":{"coordinates":[37.754969143668,55.716174122963],"type":"Point"},"properties":{"DatasetId":588,"VersionNumber":4,"ReleaseNumber":13,"RowId":null,"Attributes":{"Address":"улица Васильцовский Стан, дом 12, корпус 1","global_id":20444480,"AdmArea":"Юго-Восточный административный округ","District":"Рязанский район","TotalParkingSlots":372,"ConstructionBegin":"апрель 2010 года","ConstructionEnd":"апрель 2011 года\n"}},"type":"Feature"},{"geometry":{"coordinates":[37.753626925842,55.716635689792],"type":"Point"},"properties":{"DatasetId":588,"VersionNumber":4,"ReleaseNumber":13,"RowId":null,"Attributes":{"Address":"улица Васильцовский Стан, дом 13, корпус 1","global_id":20444481,"AdmArea":"Юго-Восточный административный округ","District":"Рязанский район","TotalParkingSlots":312,"ConstructionBegin":"апрель 2010 года","ConstructionEnd":"май 2011 года\n"}},"type":"Feature"},{"geometry":{"coordinates":[37.752388241657,55.717115812792],"type":"Point"},"properties":{"DatasetId":588,"VersionNumber":4,"ReleaseNumber":13,"RowId":null,"Attributes":{"Address":"улица Васильцовский Стан, дом 13, корпус 2","global_id":20444482,"AdmArea":"Юго-Восточный административный округ","District":"Рязанский район","TotalParkingSlots":446,"ConstructionBegin":"май 2010 года","ConstructionEnd":"май 2011 года"}},"type":"Feature"},{"geometry":{"coordinates":[37.746815897292,55.718160780009],"type":"Point"},"properties":{"DatasetId":588,"VersionNumber":4,"ReleaseNumber":13,"RowId":null,"Attributes":{"Address":"Саратовская улица, дом 31, корпус 1","global_id":20444483,"AdmArea":"Юго-Восточный административный округ","District":"Рязанский район","TotalParkingSlots":324,"ConstructionBegin":"март 2010 года","ConstructionEnd":"апрель 2011 года"}},"type":"Feature"},{"geometry":{"coordinates":[37.744393523468,55.719854339595],"type":"Point"},"properties":{"DatasetId":588,"VersionNumber":4,"ReleaseNumber":13,"RowId":null,"Attributes":{"Address":"Волжский бульвар, дом 1, корпус 2","global_id":20444484,"AdmArea":"Юго-Восточный административный округ","District":"Рязанский район","TotalParkingSlots":463,"ConstructionBegin":"июнь 2010 года","ConstructionEnd":"декабрь 2011 года"}},"type":"Feature"},{"geometry":{"coordinates":[37.743525350297,55.720023517932],"type":"Point"},"properties":{"DatasetId":588,"VersionNumber":4,"ReleaseNumber":13,"RowId":null,"Attributes":{"Address":"Волжский бульвар, дом 1, корпус 1","global_id":20444485,"AdmArea":"Юго-Восточный административный округ","District":"Рязанский район","TotalParkingSlots":1136,"ConstructionBegin":"июнь 2010 года","ConstructionEnd":"декабрь 2011 года"}},"type":"Feature"},{"geometry":{"coordinates":[37.757899013403,55.715115328374],"type":"Point"},"properties":{"DatasetId":588,"VersionNumber":4,"ReleaseNumber":13,"RowId":null,"Attributes":{"Address":"Окская улица, дом 7, корпус 2","global_id":20444486,"AdmArea":"Юго-Восточный административный округ","District":"Рязанский район","TotalParkingSlots":780,"ConstructionBegin":"март 2010 года","ConstructionEnd":"май 2011 года"}},"type":"Feature"},{"geometry":{"coordinates":[37.665907786063,55.589616981076],"type":"Point"},"properties":{"DatasetId":588,"VersionNumber":4,"ReleaseNumber":13,"RowId":null,"Attributes":{"Address":"Бирюлёвская улица,  35","global_id":20444487,"AdmArea":"Южный административный округ","District":"район Бирюлёво Восточное","TotalParkingSlots":130,"ConstructionBegin":"июнь 2010 года","ConstructionEnd":"ноябрь 2014 года"}},"type":"Feature"},{"geometry":{"coordinates":[37.581718991346,55.537265700568],"type":"Point"},"properties":{"DatasetId":588,"VersionNumber":4,"ReleaseNumber":13,"RowId":null,"Attributes":{"Address":"Варшавское шоссе, дом 206","global_id":20444488,"AdmArea":"Юго-Западный административный округ","District":"район Южное Бутово","TotalParkingSlots":300,"ConstructionBegin":"февраль 2010 года","ConstructionEnd":"июнь 2011 года"}},"type":"Feature"},{"geometry":{"coordinates":[37.476055856837,55.673714586964],"type":"Point"},"properties":{"DatasetId":588,"VersionNumber":4,"ReleaseNumber":13,"RowId":null,"Attributes":{"Address":"улица Коштоянца, дом 22","global_id":20444489,"AdmArea":"Западный административный округ","District":"район Тропарёво-Никулино","TotalParkingSlots":442,"ConstructionBegin":"сентябрь 2010 года","ConstructionEnd":"октябрь 2014 года"}},"type":"Feature"},{"geometry":{"coordinates":[37.451240511831,55.663602927683],"type":"Point"},"properties":{"DatasetId":588,"VersionNumber":4,"ReleaseNumber":13,"RowId":null,"Attributes":{"Address":"Никулинская улица, дом 11, корпус 4","global_id":20462878,"AdmArea":"Западный административный округ","District":"район Тропарёво-Никулино","TotalParkingSlots":418,"ConstructionBegin":"июнь 2010 года","ConstructionEnd":"декабрь 2011 года"}},"type":"Feature"},{"geometry":{"coordinates":[37.717531482766,55.745017270937],"type":"Point"},"properties":{"DatasetId":588,"VersionNumber":4,"ReleaseNumber":13,"RowId":null,"Attributes":{"Address":"2-й Кабельный проезд, 5","global_id":20462879,"AdmArea":"Юго-Восточный административный округ","District":"район Лефортово","TotalParkingSlots":100,"ConstructionBegin":"апрель 2011 года","ConstructionEnd":"июнь 2014 года"}},"type":"Feature"},{"geometry":{"coordinates":[37.64552891564,55.892902687128],"type":"Point"},"properties":{"DatasetId":588,"VersionNumber":4,"ReleaseNumber":13,"RowId":null,"Attributes":{"Address":"Полярная улица, 39, корпус 1","global_id":20463137,"AdmArea":"Северо-Восточный административный округ","District":"район Северное Медведково","TotalParkingSlots":275,"ConstructionBegin":"март 2010 года","ConstructionEnd":"декабрь 2010 года"}},"type":"Feature"},{"geometry":{"coordinates":[37.646299103358,55.780494970623],"type":"Point"},"properties":{"DatasetId":588,"VersionNumber":4,"ReleaseNumber":13,"RowId":null,"Attributes":{"Address":"Пантелеевская улица, дом 4","global_id":20463260,"AdmArea":"Центральный административный округ","District":"Красносельский район","TotalParkingSlots":243,"ConstructionBegin":"декабрь 2010 года","ConstructionEnd":"июль 2013 года"}},"type":"Feature"},{"geometry":{"coordinates":[37.750550344223,55.717759698788],"type":"Point"},"properties":{"DatasetId":588,"VersionNumber":4,"ReleaseNumber":13,"RowId":null,"Attributes":{"Address":"Саратовская улица, дом 26","global_id":20463301,"AdmArea":"Юго-Восточный административный округ","District":"Рязанский район","TotalParkingSlots":150,"ConstructionBegin":"апрель 2010 года","ConstructionEnd":"сентябрь 2010 года"}},"type":"Feature"},{"geometry":{"coordinates":[37.536136051379,55.862232691887],"type":"Point"},"properties":{"DatasetId":588,"VersionNumber":4,"ReleaseNumber":13,"RowId":null,"Attributes":{"Address":"улица Пяловская, дом 1","global_id":64237024,"AdmArea":"Северный административный округ","District":"район Западное Дегунино","TotalParkingSlots":457,"ConstructionBegin":"февраль 2011 года","ConstructionEnd":"январь 2016 года"}},"type":"Feature"},{"geometry":{"coordinates":[37.695054060763,55.881891179503],"type":"Point"},"properties":{"DatasetId":588,"VersionNumber":4,"ReleaseNumber":13,"RowId":null,"Attributes":{"Address":"улица Малыгина, дом 8А","global_id":64237025,"AdmArea":"Северо-Восточный административный округ","District":"Лосиноостровский район","TotalParkingSlots":154,"ConstructionBegin":"март 2011 года","ConstructionEnd":"декабрь 2015 года"}},"type":"Feature"},{"geometry":{"coordinates":[37.539046092846,55.921109327493],"type":"Point"},"properties":{"DatasetId":588,"VersionNumber":4,"ReleaseNumber":13,"RowId":null,"Attributes":{"Address":"Долгопруднинское шоссе, дом 8","global_id":64237026,"AdmArea":"Северо-Восточный административный округ","District":"район Северный","TotalParkingSlots":348,"ConstructionBegin":"май 2010 года","ConstructionEnd":"сентябрь 2015 года"}},"type":"Feature"},{"geometry":{"coordinates":[37.728908082357,55.772500792508],"type":"Point"},"properties":{"DatasetId":588,"VersionNumber":4,"ReleaseNumber":13,"RowId":null,"Attributes":{"Address":"10-я улица Соколиной Горы, дом 4А","global_id":64237079,"AdmArea":"Восточный административный округ","District":"район Соколиная Гора","TotalParkingSlots":113,"ConstructionBegin":"июнь 2011 года","ConstructionEnd":"ноябрь 2015 года"}},"type":"Feature"},{"geometry":{"coordinates":[37.871600278031,55.815365249019],"type":"Point"},"properties":{"DatasetId":588,"VersionNumber":4,"ReleaseNumber":13,"RowId":null,"Attributes":{"Address":"улица Западная, дом 7Д","global_id":64237113,"AdmArea":"Восточный административный округ","District":"район Восточный","TotalParkingSlots":237,"ConstructionBegin":"апрель 2012 года","ConstructionEnd":"декабрь 2015 года"}},"type":"Feature"},{"geometry":{"coordinates":[37.729486576969,55.781112984452],"type":"Point"},"properties":{"DatasetId":588,"VersionNumber":4,"ReleaseNumber":13,"RowId":null,"Attributes":{"Address":"улица Ибрагимова, дом 7А","global_id":64237196,"AdmArea":"Восточный административный округ","District":"район Соколиная Гора","TotalParkingSlots":100,"ConstructionBegin":"октябрь 2011 года","ConstructionEnd":"декабрь 2015 года"}},"type":"Feature"},{"geometry":{"coordinates":[37.636859402485,55.681657964082],"type":"Point"},"properties":{"DatasetId":588,"VersionNumber":4,"ReleaseNumber":13,"RowId":null,"Attributes":{"Address":"Нагатинская улица, дом 7","global_id":64237257,"AdmArea":"Южный административный округ","District":"район Нагатино-Садовники","TotalParkingSlots":198,"ConstructionBegin":"июль 2010 года","ConstructionEnd":"декабрь 2015 года"}},"type":"Feature"},{"geometry":{"coordinates":[37.355336458219,55.635598346904],"type":"Point"},"properties":{"DatasetId":588,"VersionNumber":4,"ReleaseNumber":13,"RowId":null,"Attributes":{"Address":"улица Шолохова, дом 3","global_id":64237329,"AdmArea":"Западный административный округ","District":"район Ново-Переделкино","TotalParkingSlots":130,"ConstructionBegin":"ноябрь 2010 года","ConstructionEnd":"декабрь 2015 года"}},"type":"Feature"},{"geometry":{"coordinates":[37.451414322805,55.663241296699],"type":"Point"},"properties":{"DatasetId":588,"VersionNumber":4,"ReleaseNumber":13,"RowId":null,"Attributes":{"Address":"Никулинская улица, дом 11, корпус 5","global_id":64244102,"AdmArea":"Западный административный округ","District":"район Тропарёво-Никулино","TotalParkingSlots":512,"ConstructionBegin":"июнь 2010 года","ConstructionEnd":"декабрь 2011 года"}},"type":"Feature"},{"geometry":{"coordinates":[37.399424091527,55.899730584712],"type":"Point"},"properties":{"DatasetId":588,"VersionNumber":4,"ReleaseNumber":13,"RowId":null,"Attributes":{"Address":"Новокуркинское шоссе, дом 18","global_id":64244103,"AdmArea":"Северо-Западный административный округ","District":"район Куркино","TotalParkingSlots":284,"ConstructionBegin":"декабрь 2010 года","ConstructionEnd":"октябрь 2012 года"}},"type":"Feature"},{"geometry":{"coordinates":[37.399740361008,55.899038531163],"type":"Point"},"properties":{"DatasetId":588,"VersionNumber":4,"ReleaseNumber":13,"RowId":null,"Attributes":{"Address":"Новокуркинское шоссе, дом 16","global_id":64244104,"AdmArea":"Северо-Западный административный округ","District":"район Куркино","TotalParkingSlots":300,"ConstructionBegin":"декабрь 2010 года","ConstructionEnd":"октябрь 2012 года"}},"type":"Feature"},{"geometry":{"coordinates":[37.535824880746,55.532974076447],"type":"Point"},"properties":{"DatasetId":588,"VersionNumber":4,"ReleaseNumber":13,"RowId":null,"Attributes":{"Address":"Чечёрский  проезд, дом 9А, строение 1","global_id":64337261,"AdmArea":"Юго-Западный административный округ","District":"район Южное Бутово","TotalParkingSlots":16,"ConstructionBegin":"январь 2011 года","ConstructionEnd":"май 2013 года"}},"type":"Feature"},{"geometry":{"coordinates":[37.521717880516,55.528553174466],"type":"Point"},"properties":{"DatasetId":588,"VersionNumber":4,"ReleaseNumber":13,"RowId":null,"Attributes":{"Address":"Чечёрский проезд, дом 31","global_id":64337494,"AdmArea":"Юго-Западный административный округ","District":"район Южное Бутово","TotalParkingSlots":763,"ConstructionBegin":"февраль 2011 года","ConstructionEnd":"октябрь 2012 года"}},"type":"Feature"},{"geometry":{"coordinates":[37.473542556874,55.870842514809],"type":"Point"},"properties":{"DatasetId":588,"VersionNumber":4,"ReleaseNumber":13,"RowId":null,"Attributes":{"Address":"Смольная улица, дом 48Б","global_id":64338800,"AdmArea":"Северный административный округ","District":"район Левобережный","TotalParkingSlots":331,"ConstructionBegin":"март 2010 года","ConstructionEnd":"май 2011 года"}},"type":"Feature"},{"geometry":{"coordinates":[37.682145777088,55.68831430667],"type":"Point"},"properties":{"DatasetId":588,"VersionNumber":4,"ReleaseNumber":13,"RowId":null,"Attributes":{"Address":"Якорная улица, 1","global_id":284372442,"AdmArea":"Южный административный округ","District":"район Нагатинский Затон","TotalParkingSlots":245,"ConstructionBegin":"апрель 2011 года","ConstructionEnd":"октябрь 2016 года"}},"type":"Feature"},{"geometry":{"coordinates":[37.582414975238,55.603014156466],"type":"Point"},"properties":{"DatasetId":588,"VersionNumber":4,"ReleaseNumber":13,"RowId":null,"Attributes":{"Address":"Академика Янгеля улица, д.14, корп.11","global_id":284372445,"AdmArea":"Южный административный округ","District":"район Чертаново Южное","TotalParkingSlots":91,"ConstructionBegin":"август 2010 года","ConstructionEnd":"ноябрь 2016 года"}},"type":"Feature"},{"geometry":{"coordinates":[37.548178746068,55.909533249027],"type":"Point"},"properties":{"DatasetId":588,"VersionNumber":4,"ReleaseNumber":13,"RowId":null,"Attributes":{"Address":"МКАД 82-й км, вл.3","global_id":284372450,"AdmArea":"Северо-Восточный административный округ","District":"район Лианозово","TotalParkingSlots":254,"ConstructionBegin":"июль 2010 года","ConstructionEnd":"ноябрь 2016 года"}},"type":"Feature"},{"geometry":{"coordinates":[37.546122857128,55.55138497971],"type":"Point"},"properties":{"DatasetId":588,"VersionNumber":4,"ReleaseNumber":13,"RowId":null,"Attributes":{"Address":"Поляны улица, д.22","global_id":284372451,"AdmArea":"Юго-Западный административный округ","District":"район Южное Бутово","TotalParkingSlots":783,"ConstructionBegin":"октябрь 2011 года","ConstructionEnd":"декабрь 2016 года"}},"type":"Feature"},{"geometry":{"coordinates":[37.631566548356,55.897943719645],"type":"Point"},"properties":{"DatasetId":588,"VersionNumber":4,"ReleaseNumber":13,"RowId":null,"Attributes":{"Address":"Корнейчука улица, д.31","global_id":284372452,"AdmArea":"Северо-Восточный административный округ","District":"район Бибирево","TotalParkingSlots":567,"ConstructionBegin":"декабрь 2010 года","ConstructionEnd":"декабрь 2016 года"}},"type":"Feature"},{"geometry":{"coordinates":[37.401162706382,55.641047415473],"type":"Point"},"properties":{"DatasetId":588,"VersionNumber":4,"ReleaseNumber":13,"RowId":null,"Attributes":{"Address":"Авиаторов улица, д.7, корп.2","global_id":401132622,"AdmArea":"Западный административный округ","District":"район Солнцево","TotalParkingSlots":216,"ConstructionBegin":"октябрь 2010 года","ConstructionEnd":"апрель 2017 года"}},"type":"Feature"},{"geometry":{"coordinates":[37.506737568925,55.646956971026],"type":"Point"},"properties":{"DatasetId":588,"VersionNumber":4,"ReleaseNumber":13,"RowId":null,"Attributes":{"Address":"Академика Опарина улица, д.7","global_id":659867969,"AdmArea":"Юго-Западный административный округ","District":"район Коньково","TotalParkingSlots":382,"ConstructionBegin":"ноябрь 2010 года","ConstructionEnd":"сентябрь 2017 года"}},"type":"Feature"},{"geometry":{"coordinates":[37.397177012849,55.884891373378],"type":"Point"},"properties":{"DatasetId":588,"VersionNumber":4,"ReleaseNumber":13,"RowId":null,"Attributes":{"Address":"Куркинское шоссе, д.17, корп.2","global_id":659867979,"AdmArea":"Северо-Западный административный округ","District":"район Куркино","TotalParkingSlots":110,"ConstructionBegin":"декабрь 2010 года","ConstructionEnd":"октябрь 2017 года"}},"type":"Feature"},{"geometry":{"coordinates":[37.525617487916,55.599467603178],"type":"Point"},"properties":{"DatasetId":588,"VersionNumber":4,"ReleaseNumber":13,"RowId":null,"Attributes":{"Address":"Голубинская улица, д.21А","global_id":659867980,"AdmArea":"Юго-Западный административный округ","District":"район Ясенево","TotalParkingSlots":290,"ConstructionBegin":"октябрь 2010 года","ConstructionEnd":"сентябрь 2017 года"}},"type":"Feature"},{"geometry":{"coordinates":[37.757676413529,55.667905764652],"type":"Point"},"properties":{"DatasetId":588,"VersionNumber":4,"ReleaseNumber":13,"RowId":null,"Attributes":{"Address":"Верхние Поля улица, д.35","global_id":659867982,"AdmArea":"Юго-Восточный административный округ","District":"район Люблино","TotalParkingSlots":281,"ConstructionBegin":"апрель 2011 года","ConstructionEnd":"октябрь 2017 года"}},"type":"Feature"},{"geometry":{"coordinates":[37.774570966227,55.67339952676],"type":"Point"},"properties":{"DatasetId":588,"VersionNumber":4,"ReleaseNumber":13,"RowId":null,"Attributes":{"Address":"Краснодарская улица, д.66, корп.2","global_id":832071058,"AdmArea":"Юго-Восточный административный округ","District":"район Люблино","TotalParkingSlots":283,"ConstructionBegin":"апрель 2011 года","ConstructionEnd":"декабрь 2017 года"}},"type":"Feature"},{"geometry":{"coordinates":[37.389834042102,55.720484449295],"type":"Point"},"properties":{"DatasetId":588,"VersionNumber":4,"ReleaseNumber":13,"RowId":null,"Attributes":{"Address":"Барвихинская улица, д.20А","global_id":832095105,"AdmArea":"Западный административный округ","District":"Можайский район","TotalParkingSlots":316,"ConstructionBegin":"март 2011 года","ConstructionEnd":"декабрь 2017 года"}},"type":"Feature"},{"geometry":{"coordinates":[37.836152198363,55.815123072792],"type":"Point"},"properties":{"DatasetId":588,"VersionNumber":4,"ReleaseNumber":13,"RowId":null,"Attributes":{"Address":"Красноярская улица, д.2","global_id":832142369,"AdmArea":"Восточный административный округ","District":"район Гольяново","TotalParkingSlots":242,"ConstructionBegin":"январь 2011 года","ConstructionEnd":"декабрь 2017 года"}},"type":"Feature"},{"geometry":{"coordinates":[37.709985566239,55.615386029159],"type":"Point"},"properties":{"DatasetId":588,"VersionNumber":4,"ReleaseNumber":13,"RowId":null,"Attributes":{"Address":"Каширское шоссе, д.94","global_id":860060997,"AdmArea":"Южный административный округ","District":"район Орехово-Борисово Северное","TotalParkingSlots":371,"ConstructionBegin":"июнь 2010 года","ConstructionEnd":"январь 2018 года"}},"type":"Feature"},{"geometry":{"coordinates":[37.397655445226,55.705110357539],"type":"Point"},"properties":{"DatasetId":588,"VersionNumber":4,"ReleaseNumber":13,"RowId":null,"Attributes":{"Address":"Беловежская улица, д.12","global_id":860061076,"AdmArea":"Западный административный округ","District":"Можайский район","TotalParkingSlots":473,"ConstructionBegin":"апрель 2011 года","ConstructionEnd":"январь 2018 года"}},"type":"Feature"}],"type":"FeatureCollection"}