[{"global_id":20440992,"Number":1,"Cells":{"global_id":20440992,"ConstructionEnd":"март 2011 года","District":"Таганский район","Address":"Международная улица, дом 25","TotalParkingSlots":390,"ConstructionBegin":"февраль 2010 года","AdmArea":"Центральный административный округ","geoData":{"type":"Point","coordinates":[37.691030166675,55.741460690732]}}},{"global_id":20440993,"Number":2,"Cells":{"global_id":20440993,"ConstructionEnd":"март 2011 года","District":"Таганский район","Address":"Международная улица, дом 27","TotalParkingSlots":375,"ConstructionBegin":"февраль 2010 года","AdmArea":"Центральный административный округ","geoData":{"type":"Point","coordinates":[37.692749573707,55.739611343782]}}},{"global_id":20440995,"Number":3,"Cells":{"global_id":20440995,"ConstructionEnd":"май 2011 года","District":"район Западное Дегунино","Address":"Базовская улица, дом 8А","TotalParkingSlots":125,"ConstructionBegin":"март 2010 года","AdmArea":"Северный административный округ","geoData":{"type":"Point","coordinates":[37.509377600938,55.876079327219]}}},{"global_id":20440996,"Number":4,"Cells":{"global_id":20440996,"ConstructionEnd":"март 2012 года","District":"Савёловский район","Address":"Башиловская улица, дом 23, сооружение 1, сооружение 2, сооружение 3","TotalParkingSlots":123,"ConstructionBegin":"август 2010 года","AdmArea":"Северный административный округ","geoData":{"type":"Point","coordinates":[37.573253296561,55.802535726004]}}},{"global_id":20440997,"Number":5,"Cells":{"global_id":20440997,"ConstructionEnd":"декабрь 2011 года","District":"Савёловский район","Address":"Башиловская улица, дом 23Б","TotalParkingSlots":100,"ConstructionBegin":"сентябрь 2010 года","AdmArea":"Северный административный округ","geoData":{"type":"Point","coordinates":[37.570730295773,55.802482401731]}}},{"global_id":20441000,"Number":6,"Cells":{"global_id":20441000,"ConstructionEnd":"июль 2013 года","District":"район Западное Дегунино","Address":"Весенняя улица, дом 6А","TotalParkingSlots":98,"ConstructionBegin":"декабрь 2011 года","AdmArea":"Северный административный округ","geoData":{"type":"Point","coordinates":[37.517644248488,55.87268238644]}}},{"global_id":20441001,"Number":7,"Cells":{"global_id":20441001,"ConstructionEnd":"декабрь 2013 года","District":"район Западное Дегунино","Address":"улица Ивана Сусанина, дом 2, строение 1","TotalParkingSlots":299,"ConstructionBegin":"ноябрь 2010 года","AdmArea":"Северный административный округ","geoData":{"type":"Point","coordinates":[37.52649796547,55.866115004824]}}},{"global_id":20441002,"Number":8,"Cells":{"global_id":20441002,"ConstructionEnd":"сентябрь 2011 года","District":"район Аэропорт","Address":"Красноармейская улица, дом 15А","TotalParkingSlots":99,"ConstructionBegin":"апрель 2010 года","AdmArea":"Северный административный округ","geoData":{"type":"Point","coordinates":[37.542002569536,55.800485347988]}}},{"global_id":20441003,"Number":9,"Cells":{"global_id":20441003,"ConstructionEnd":"март 2011 года","District":"район Коптево","Address":"Новопетровская улица, дом 7А","TotalParkingSlots":149,"ConstructionBegin":"май 2010 года","AdmArea":"Северный административный округ","geoData":{"type":"Point","coordinates":[37.523727898384,55.827918367673]}}},{"global_id":20441007,"Number":10,"Cells":{"global_id":20441007,"ConstructionEnd":"декабрь 2011 года","District":"Дмитровский район","Address":"Учинская улица, дом 6А","TotalParkingSlots":100,"ConstructionBegin":"март 2010 года","AdmArea":"Северный административный округ","geoData":{"type":"Point","coordinates":[37.537060397035,55.884143028313]}}},{"global_id":20441008,"Number":11,"Cells":{"global_id":20441008,"ConstructionEnd":"июль 2013 года","District":"Останкинский район","Address":"улица Академика Королёва, дом 15А","TotalParkingSlots":440,"ConstructionBegin":"октябрь 2010 года","AdmArea":"Северо-Восточный административный округ","geoData":{"type":"Point","coordinates":[37.614437398591,55.821034661754]}}},{"global_id":20441012,"Number":12,"Cells":{"global_id":20441012,"ConstructionEnd":"сентябрь 2013 года","District":"район Отрадное","Address":"улица Пестеля, дом 6, корпус 1","TotalParkingSlots":170,"ConstructionBegin":"август 2010 года","AdmArea":"Северо-Восточный административный округ","geoData":{"type":"Point","coordinates":[37.617099555174,55.864989552684]}}},{"global_id":20441013,"Number":13,"Cells":{"global_id":20441013,"ConstructionEnd":"февраль 2012 года","District":"район Отрадное","Address":"улица Римского-Корсакова, дом 15Б, строение 4","TotalParkingSlots":409,"ConstructionBegin":"июнь 2010 года","AdmArea":"Северо-Восточный административный округ","geoData":{"type":"Point","coordinates":[37.609569863187,55.876709892556]}}},{"global_id":20441015,"Number":14,"Cells":{"global_id":20441015,"ConstructionEnd":"январь 2014 года","District":"район Северный","Address":"Челобитьевское шоссе, дом 4А","TotalParkingSlots":196,"ConstructionBegin":"август 2010 года","AdmArea":"Северо-Восточный административный округ","geoData":{"type":"Point","coordinates":[37.550851266608,55.914786777346]}}},{"global_id":20441016,"Number":15,"Cells":{"global_id":20441016,"ConstructionEnd":"июнь 2013 года","District":"район Северный","Address":"Северный, микрорайон 9, корпус 2","TotalParkingSlots":197,"ConstructionBegin":"апрель 2010 года","AdmArea":"Северо-Восточный административный округ","geoData":{"type":"Point","coordinates":[37.910534847581,55.827375332845]}}},{"global_id":20441017,"Number":16,"Cells":{"global_id":20441017,"ConstructionEnd":"февраль 2011 года","District":"район Свиблово","Address":"Уржумская улица, 4, корпус 1","TotalParkingSlots":360,"ConstructionBegin":"март 2010 года","AdmArea":"Северо-Восточный административный округ","geoData":{"type":"Point","coordinates":[37.663965642595,55.852179091595]}}},{"global_id":20441018,"Number":17,"Cells":{"global_id":20441018,"ConstructionEnd":"октябрь 2012 года","District":"район Богородское","Address":"3-я Гражданская улица, дом 19","TotalParkingSlots":182,"ConstructionBegin":"март 2012 года","AdmArea":"Восточный административный округ","geoData":{"type":"Point","coordinates":[37.707171362283,55.813251822127]}}},{"global_id":20441020,"Number":18,"Cells":{"global_id":20441020,"ConstructionEnd":"июнь 2011 года","District":"район Вешняки","Address":"Вешняковская улица, дом 16, блок А, стр. 1","TotalParkingSlots":183,"ConstructionBegin":"март 2010 года","AdmArea":"Восточный административный округ","geoData":{"type":"Point","coordinates":[37.826277363668,55.724710254425]}}},{"global_id":20441021,"Number":19,"Cells":{"global_id":20441021,"ConstructionEnd":"июнь 2011 года","District":"район Вешняки","Address":"Вешняковская улица, дом 16, блок Б","TotalParkingSlots":100,"ConstructionBegin":"март 2010 года","AdmArea":"Восточный административный округ","geoData":{"type":"Point","coordinates":[37.82554423849,55.725171855273]}}},{"global_id":20441022,"Number":20,"Cells":{"global_id":20441022,"ConstructionEnd":"август 2012 года","District":"район Сокольники","Address":"улица Жебрунова, 6Б","TotalParkingSlots":369,"ConstructionBegin":"октябрь 2010 года","AdmArea":"Восточный административный округ","geoData":{"type":"Point","coordinates":[37.679254596699,55.784437170072]}}},{"global_id":20441023,"Number":21,"Cells":{"global_id":20441023,"ConstructionEnd":"май 2012 года","District":"район Вешняки","Address":"Кетчерская улица, дом 5А","TotalParkingSlots":292,"ConstructionBegin":"июнь 2010 года","AdmArea":"Восточный административный округ","geoData":{"type":"Point","coordinates":[37.829129995584,55.745685350395]}}},{"global_id":20441024,"Number":22,"Cells":{"global_id":20441024,"ConstructionEnd":"декабрь 2011 года","District":"район Ивановское","Address":"Малый Купавенский проезд, дом 14А","TotalParkingSlots":350,"ConstructionBegin":"февраль 2010 года","AdmArea":"Восточный административный округ","geoData":{"type":"Point","coordinates":[37.839145569093,55.782812095021]}}},{"global_id":20441025,"Number":23,"Cells":{"global_id":20441025,"ConstructionEnd":"март 2011 года","District":"район Богородское","Address":"Открытое шоссе, дом 19Б","TotalParkingSlots":207,"ConstructionBegin":"март 2010 года","AdmArea":"Восточный административный округ","geoData":{"type":"Point","coordinates":[37.749330344092,55.825775619365]}}},{"global_id":20441026,"Number":24,"Cells":{"global_id":20441026,"ConstructionEnd":"апрель 2011 года","District":"район Богородское","Address":"Открытое шоссе, дом 30А","TotalParkingSlots":95,"ConstructionBegin":"июль 2010 года","AdmArea":"Восточный административный округ","geoData":{"type":"Point","coordinates":[37.768755941669,55.829173471152]}}},{"global_id":20441027,"Number":25,"Cells":{"global_id":20441027,"ConstructionEnd":"октябрь 2012 года","District":"район Гольяново","Address":"Хабаровская улица, дом 2А","TotalParkingSlots":248,"ConstructionBegin":"октябрь 2010 года","AdmArea":"Восточный административный округ","geoData":{"type":"Point","coordinates":[37.830304569221,55.813928883239]}}},{"global_id":20441028,"Number":26,"Cells":{"global_id":20441028,"ConstructionEnd":"март 2013 года","District":"район Перово","Address":"Электродная улица, дом 5","TotalParkingSlots":190,"ConstructionBegin":"январь 2011 года","AdmArea":"Восточный административный округ","geoData":{"type":"Point","coordinates":[37.753978898722,55.754103900536]}}},{"global_id":20441029,"Number":27,"Cells":{"global_id":20441029,"ConstructionEnd":"декабрь 2011 года","District":"район Печатники","Address":"2-й Южнопортовый проезд, дом 13, корпус 2","TotalParkingSlots":250,"ConstructionBegin":"март 2010 года","AdmArea":"Юго-Восточный административный округ","geoData":{"type":"Point","coordinates":[37.685069714362,55.699395143838]}}},{"global_id":20441030,"Number":28,"Cells":{"global_id":20441030,"ConstructionEnd":"декабрь 2011 года","District":"район Печатники","Address":"2-й Южнопортовый проезд, дом 15, корпус 2","TotalParkingSlots":253,"ConstructionBegin":"март 2010 года","AdmArea":"Юго-Восточный административный округ","geoData":{"type":"Point","coordinates":[37.685898264101,55.699857627308]}}},{"global_id":20441031,"Number":29,"Cells":{"global_id":20441031,"ConstructionEnd":"декабрь 2011 года","District":"район Лефортово","Address":"2-й Кабельный проезд, дом 11","TotalParkingSlots":154,"ConstructionBegin":"октябрь 2010 года","AdmArea":"Юго-Восточный административный округ","geoData":{"type":"Point","coordinates":[37.718685637677,55.743501435221]}}},{"global_id":20441032,"Number":30,"Cells":{"global_id":20441032,"ConstructionEnd":"декабрь 2011 года","District":"район Выхино-Жулебино","Address":"Привольная улица, дом 33, корпус 1","TotalParkingSlots":700,"ConstructionBegin":"март 2010 года","AdmArea":"Юго-Восточный административный округ","geoData":{"type":"Point","coordinates":[37.851300917185,55.694277806999]}}},{"global_id":20441033,"Number":31,"Cells":{"global_id":20441033,"ConstructionEnd":"декабрь 2011 года","District":"район Выхино-Жулебино","Address":"Привольная улица, дом 33, корпус 2","TotalParkingSlots":313,"ConstructionBegin":"март 2010 года","AdmArea":"Юго-Восточный административный округ","geoData":{"type":"Point","coordinates":[37.852141251322,55.694516521401]}}},{"global_id":20441034,"Number":32,"Cells":{"global_id":20441034,"ConstructionEnd":"февраль 2011 года","District":"район Люблино","Address":"Краснодарский проезд, дом 12","TotalParkingSlots":482,"ConstructionBegin":"март 2010 года","AdmArea":"Юго-Восточный административный округ","geoData":{"type":"Point","coordinates":[37.788389459571,55.672130164183]}}},{"global_id":20441035,"Number":33,"Cells":{"global_id":20441035,"ConstructionEnd":"февраль 2011 года","District":"район Люблино","Address":"Краснодарский проезд, дом 2","TotalParkingSlots":494,"ConstructionBegin":"март 2010 года","AdmArea":"Юго-Восточный административный округ","geoData":{"type":"Point","coordinates":[37.783525900967,55.668307428678]}}},{"global_id":20441036,"Number":34,"Cells":{"global_id":20441036,"ConstructionEnd":"февраль 2011 года","District":"район Люблино","Address":"Краснодарский проезд, дом 8","TotalParkingSlots":494,"ConstructionBegin":"март 2010 года","AdmArea":"Юго-Восточный административный округ","geoData":{"type":"Point","coordinates":[37.78683714204,55.670384676118]}}},{"global_id":20441037,"Number":35,"Cells":{"global_id":20441037,"ConstructionEnd":"июнь 2011 года","District":"район Марьино","Address":"улица Верхние Поля, дом 44","TotalParkingSlots":322,"ConstructionBegin":"июнь 2010 года","AdmArea":"Юго-Восточный административный округ","geoData":{"type":"Point","coordinates":[37.778012545289,55.664956244493]}}},{"global_id":20441038,"Number":36,"Cells":{"global_id":20441038,"ConstructionEnd":"июнь 2014 года","District":"район Люблино","Address":"Новороссийская улица, 23, корпус 1","TotalParkingSlots":397,"ConstructionBegin":"октябрь 2010 года","AdmArea":"Юго-Восточный административный округ","geoData":{"type":"Point","coordinates":[37.759745678059,55.673028348867]}}},{"global_id":20441046,"Number":37,"Cells":{"global_id":20441046,"ConstructionEnd":"август 2011 года","District":"район Выхино-Жулебино","Address":"Привольная улица, дом 54, корпус 2","TotalParkingSlots":450,"ConstructionBegin":"март 2010 года","AdmArea":"Юго-Восточный административный округ","geoData":{"type":"Point","coordinates":[37.838854727138,55.684581243898]}}},{"global_id":20441047,"Number":38,"Cells":{"global_id":20441047,"ConstructionEnd":"июль 2011 года","District":"район Выхино-Жулебино","Address":"Сормовский проезд, дом 7, корпус 2","TotalParkingSlots":315,"ConstructionBegin":"апрель 2010 года","AdmArea":"Юго-Восточный административный округ","geoData":{"type":"Point","coordinates":[37.79790134647,55.709072774745]}}},{"global_id":20441049,"Number":39,"Cells":{"global_id":20441049,"ConstructionEnd":"июль 2013 года","District":"район Братеево","Address":"Братеевская улица, дом 22А","TotalParkingSlots":328,"ConstructionBegin":"сентябрь 2010 года","AdmArea":"Южный административный округ","geoData":{"type":"Point","coordinates":[37.772459303135,55.634804446172]}}},{"global_id":20441050,"Number":40,"Cells":{"global_id":20441050,"ConstructionEnd":"июль 2015 года","District":"район Братеево","Address":"Братеевская улица, 20, корпус 2","TotalParkingSlots":397,"ConstructionBegin":"январь 2011 года","AdmArea":"Южный административный округ","geoData":{"type":"Point","coordinates":[37.771274627605,55.634269840306]}}},{"global_id":20441051,"Number":41,"Cells":{"global_id":20441051,"ConstructionEnd":"май 2011 года","District":"район Братеево","Address":"Братеевская улица, дом 24, корпус 1","TotalParkingSlots":472,"ConstructionBegin":"сентябрь 2010 года","AdmArea":"Южный административный округ","geoData":{"type":"Point","coordinates":[37.772142195818,55.636572597363]}}},{"global_id":20441052,"Number":42,"Cells":{"global_id":20441052,"ConstructionEnd":"март 2013 года","District":"район Орехово-Борисово Южное","Address":"Воронежская улица, дом 13, корпус 2","TotalParkingSlots":517,"ConstructionBegin":"ноябрь 2010 года","AdmArea":"Южный административный округ","geoData":{"type":"Point","coordinates":[37.735029234176,55.611460306112]}}},{"global_id":20441053,"Number":43,"Cells":{"global_id":20441053,"ConstructionEnd":"август 2012 года","District":"район Орехово-Борисово Южное","Address":"Домодедовская улица, дом 26","TotalParkingSlots":91,"ConstructionBegin":"июль 2010 года","AdmArea":"Южный административный округ","geoData":{"type":"Point","coordinates":[37.711866348166,55.605410520305]}}},{"global_id":20441054,"Number":44,"Cells":{"global_id":20441054,"ConstructionEnd":"сентябрь 2012 года","District":"Даниловский район","Address":"2-й Павелецкий проезд, дом 14","TotalParkingSlots":120,"ConstructionBegin":"ноябрь 2010 года","AdmArea":"Южный административный округ","geoData":{"type":"Point","coordinates":[37.638611164095,55.711646833949]}}},{"global_id":20441055,"Number":45,"Cells":{"global_id":20441055,"ConstructionEnd":"март 2014 года","District":"район Орехово-Борисово Южное","Address":"Каширское шоссе, дом 122, корпус 2","TotalParkingSlots":100,"ConstructionBegin":"май 2011 года","AdmArea":"Южный административный округ","geoData":{"type":"Point","coordinates":[37.718483916234,55.605330263921]}}},{"global_id":20441056,"Number":46,"Cells":{"global_id":20441056,"ConstructionEnd":"июль 2012 года","District":"район Орехово-Борисово Северное","Address":"улица Маршала Захарова, дом 23, корпус 1","TotalParkingSlots":300,"ConstructionBegin":"март 2010 года","AdmArea":"Южный административный округ","geoData":{"type":"Point","coordinates":[37.697771272859,55.619971422582]}}},{"global_id":20441057,"Number":47,"Cells":{"global_id":20441057,"ConstructionEnd":"август 2012 года","District":"район Москворечье-Сабурово","Address":"улица Москворечье, 2, корпус 3","TotalParkingSlots":182,"ConstructionBegin":"ноябрь 2011 года","AdmArea":"Южный административный округ","geoData":{"type":"Point","coordinates":[37.649417465412,55.644734837295]}}},{"global_id":20441058,"Number":48,"Cells":{"global_id":20441058,"ConstructionEnd":"апрель 2012 года","District":"район Чертаново Южное","Address":"Россошанская улица, дом 13, корпус 4","TotalParkingSlots":42,"ConstructionBegin":"июнь 2010 года","AdmArea":"Южный административный округ","geoData":{"type":"Point","coordinates":[37.615167951045,55.594572572146]}}},{"global_id":20441059,"Number":49,"Cells":{"global_id":20441059,"ConstructionEnd":"сентябрь 2012 года","District":"район Царицыно","Address":"улица Бехтерева, дом 14","TotalParkingSlots":326,"ConstructionBegin":"июль 2010 года","AdmArea":"Южный административный округ","geoData":{"type":"Point","coordinates":[37.64762362162,55.632565148501]}}},{"global_id":20441061,"Number":50,"Cells":{"global_id":20441061,"ConstructionEnd":"апрель 2014 года","District":"район Северное Бутово","Address":"Куликовская улица, дом 22","TotalParkingSlots":259,"ConstructionBegin":"сентябрь 2010 года","AdmArea":"Юго-Западный административный округ","geoData":{"type":"Point","coordinates":[37.560695307263,55.567944610727]}}},{"global_id":20441062,"Number":51,"Cells":{"global_id":20441062,"ConstructionEnd":"март 2015 года","District":"Обручевский район","Address":"Академика Волгина улица, дом 2, корпус 3","TotalParkingSlots":165,"ConstructionBegin":"сентябрь 2010 года","AdmArea":"Юго-Западный административный округ","geoData":{"type":"Point","coordinates":[37.521099108434,55.65525208166]}}},{"global_id":20441063,"Number":52,"Cells":{"global_id":20441063,"ConstructionEnd":"декабрь 2011 года","District":"район Северное Бутово","Address":"бульвар Дмитрия Донского, дом 21","TotalParkingSlots":225,"ConstructionBegin":"апрель 2010 года","AdmArea":"Юго-Западный административный округ","geoData":{"type":"Point","coordinates":[37.573294349138,55.561154159911]}}},{"global_id":20441064,"Number":53,"Cells":{"global_id":20441064,"ConstructionEnd":"апрель 2015 года","District":"район Северное Бутово","Address":"Старобитцевская улица, 14","TotalParkingSlots":225,"ConstructionBegin":"сентябрь 2010 года","AdmArea":"Юго-Западный административный округ","geoData":{"type":"Point","coordinates":[37.589287066623,55.575646293664]}}},{"global_id":20441065,"Number":54,"Cells":{"global_id":20441065,"ConstructionEnd":"май 2013 года","District":"район Южное Бутово","Address":"Чечёрский проезд, дом 9А","TotalParkingSlots":525,"ConstructionBegin":"январь 2011 года","AdmArea":"Юго-Западный административный округ","geoData":{"type":"Point","coordinates":[37.535806976941,55.532913145752]}}},{"global_id":20441066,"Number":55,"Cells":{"global_id":20441066,"ConstructionEnd":"октябрь 2012 года","District":"район Южное Бутово","Address":"Чечёрский проезд, дом 31, строение 1","TotalParkingSlots":24,"ConstructionBegin":"февраль 2011 года","AdmArea":"Юго-Западный административный округ","geoData":{"type":"Point","coordinates":[37.52239249998,55.528439926548]}}},{"global_id":20441067,"Number":56,"Cells":{"global_id":20441067,"ConstructionEnd":"май 2012 года","District":"район Южное Бутово","Address":"улица Маршала Савицкого, дом 5","TotalParkingSlots":488,"ConstructionBegin":"апрель 2010 года","AdmArea":"Юго-Западный административный округ","geoData":{"type":"Point","coordinates":[37.578311039365,55.506865004667]}}},{"global_id":20441068,"Number":57,"Cells":{"global_id":20441068,"ConstructionEnd":"декабрь 2011 года","District":"район Южное Бутово","Address":"улица Маршала Савицкого, дом 4","TotalParkingSlots":487,"ConstructionBegin":"март 2010 года","AdmArea":"Юго-Западный административный округ","geoData":{"type":"Point","coordinates":[37.57661213183,55.505805801187]}}},{"global_id":20441069,"Number":58,"Cells":{"global_id":20441069,"ConstructionEnd":"декабрь 2011 года","District":"район Южное Бутово","Address":"улица Брусилова, дом 3","TotalParkingSlots":480,"ConstructionBegin":"март 2010 года","AdmArea":"Юго-Западный административный округ","geoData":{"type":"Point","coordinates":[37.574631940292,55.500690417859]}}},{"global_id":20441070,"Number":59,"Cells":{"global_id":20441070,"ConstructionEnd":"июнь 2011 года","District":"район Южное Бутово","Address":"улица Брусилова, дом 23","TotalParkingSlots":487,"ConstructionBegin":"март 2010 года","AdmArea":"Юго-Западный административный округ","geoData":{"type":"Point","coordinates":[37.588451410835,55.500796538702]}}},{"global_id":20441071,"Number":60,"Cells":{"global_id":20441071,"ConstructionEnd":"май 2011 года","District":"район Южное Бутово","Address":"улица Брусилова, дом 35","TotalParkingSlots":334,"ConstructionBegin":"март 2010 года","AdmArea":"Юго-Западный административный округ","geoData":{"type":"Point","coordinates":[37.597355329837,55.50054256549]}}},{"global_id":20441072,"Number":61,"Cells":{"global_id":20441072,"ConstructionEnd":"июль 2011 года","District":"район Южное Бутово","Address":"улица Брусилова, дом 39","TotalParkingSlots":524,"ConstructionBegin":"август 2010 года","AdmArea":"Юго-Западный административный округ","geoData":{"type":"Point","coordinates":[37.600542823354,55.50136076126]}}},{"global_id":20441073,"Number":62,"Cells":{"global_id":20441073,"ConstructionEnd":"май 2011 года","District":"район Южное Бутово","Address":"улица Академика Семёнова, дом 19, строение 1","TotalParkingSlots":96,"ConstructionBegin":"июль 2010 года","AdmArea":"Юго-Западный административный округ","geoData":{"type":"Point","coordinates":[37.503993250117,55.541219283203]}}},{"global_id":20441074,"Number":63,"Cells":{"global_id":20441074,"ConstructionEnd":"декабрь 2011 года","District":"район Южное Бутово","Address":"улица Академика Семёнова, дом 13, строение 1","TotalParkingSlots":99,"ConstructionBegin":"июль 2010 года","AdmArea":"Юго-Западный административный округ","geoData":{"type":"Point","coordinates":[37.506816971846,55.541896322791]}}},{"global_id":20441075,"Number":64,"Cells":{"global_id":20441075,"ConstructionEnd":"март 2015 года","District":"район Южное Бутово","Address":"улица Академика Семёнова, дом 7, строение 1","TotalParkingSlots":99,"ConstructionBegin":"июль 2010 года","AdmArea":"Юго-Западный административный округ","geoData":{"type":"Point","coordinates":[37.509451359056,55.542858485007]}}},{"global_id":20441076,"Number":65,"Cells":{"global_id":20441076,"ConstructionEnd":"октябрь 2013 года","District":"район Южное Бутово","Address":"Изюмская улица, дом 63","TotalParkingSlots":435,"ConstructionBegin":"апрель 2010 года","AdmArea":"Юго-Западный административный округ","geoData":{"type":"Point","coordinates":[37.560327470886,55.542663385187]}}},{"global_id":20441077,"Number":66,"Cells":{"global_id":20441077,"ConstructionEnd":"июнь 2011 года","District":"район Южное Бутово","Address":"улица Адмирала Лазарева, дом 49","TotalParkingSlots":470,"ConstructionBegin":"март 2010 года","AdmArea":"Юго-Западный административный округ","geoData":{"type":"Point","coordinates":[37.51605755529,55.541268141262]}}},{"global_id":20441078,"Number":67,"Cells":{"global_id":20441078,"ConstructionEnd":"июнь 2011 года","District":"район Южное Бутово","Address":"Варшавское шоссе, дом 204","TotalParkingSlots":267,"ConstructionBegin":"апрель 2010 года","AdmArea":"Юго-Западный административный округ","geoData":{"type":"Point","coordinates":[37.581995650786,55.537869811538]}}},{"global_id":20441079,"Number":68,"Cells":{"global_id":20441079,"ConstructionEnd":"май 2011 года","District":"район Кунцево","Address":"Бобруйская улица, дом 11","TotalParkingSlots":461,"ConstructionBegin":"март 2010 года","AdmArea":"Западный административный округ","geoData":{"type":"Point","coordinates":[37.39812594948,55.737088051019]}}},{"global_id":20441080,"Number":69,"Cells":{"global_id":20441080,"ConstructionEnd":"декабрь 2013 года","District":"район Внуково","Address":"Советская улица, дом 20","TotalParkingSlots":121,"ConstructionBegin":"февраль 2012 года","AdmArea":"Западный административный округ","geoData":{"type":"Point","coordinates":[37.194443420692,55.602608158457]}}},{"global_id":20441081,"Number":70,"Cells":{"global_id":20441081,"ConstructionEnd":"май 2013 года","District":"район Солнцево","Address":"Боровское шоссе дом 6, корпус 4","TotalParkingSlots":538,"ConstructionBegin":"июнь 2010 года","AdmArea":"Западный административный округ","geoData":{"type":"Point","coordinates":[37.396191978943,55.657309825397]}}},{"global_id":20441082,"Number":71,"Cells":{"global_id":20441082,"ConstructionEnd":"май 2013 года","District":"район Солнцево","Address":"Боровское шоссе, дом 6, корпус 3","TotalParkingSlots":554,"ConstructionBegin":"июнь 2010 года","AdmArea":"Западный административный округ","geoData":{"type":"Point","coordinates":[37.398110254321,55.657843233248]}}},{"global_id":20441083,"Number":72,"Cells":{"global_id":20441083,"ConstructionEnd":"июнь 2013 года","District":"район Солнцево","Address":"Боровское шоссе, дом 6, корпус 2","TotalParkingSlots":345,"ConstructionBegin":"июнь 2010 года","AdmArea":"Западный административный округ","geoData":{"type":"Point","coordinates":[37.404492791435,55.659395623469]}}},{"global_id":20441084,"Number":73,"Cells":{"global_id":20441084,"ConstructionEnd":"июнь 2013 года","District":"район Солнцево","Address":"Боровское шоссе, дом 6, корпус 1","TotalParkingSlots":402,"ConstructionBegin":"апрель 2010 года","AdmArea":"Западный административный округ","geoData":{"type":"Point","coordinates":[37.40595280338,55.659735956088]}}},{"global_id":20441085,"Number":74,"Cells":{"global_id":20441085,"ConstructionEnd":"июнь 2014 года","District":"район Ново-Переделкино","Address":"Новоорловская улица, 5, корпус 1","TotalParkingSlots":329,"ConstructionBegin":"июнь 2010 года","AdmArea":"Западный административный округ","geoData":{"type":"Point","coordinates":[37.36582030275,55.635773050515]}}},{"global_id":20441087,"Number":75,"Cells":{"global_id":20441087,"ConstructionEnd":"июнь 2013 года","District":"район Проспект Вернадского","Address":"Ленинский проспект, дом 100","TotalParkingSlots":60,"ConstructionBegin":"февраль 2010 года","AdmArea":"Западный административный округ","geoData":{"type":"Point","coordinates":[37.515206880531,55.668941963551]}}},{"global_id":20441088,"Number":76,"Cells":{"global_id":20441088,"ConstructionEnd":"ноябрь 2011 года","District":"Можайский район","Address":"улица Маршала Неделина, дом 29","TotalParkingSlots":673,"ConstructionBegin":"март 2010 года","AdmArea":"Западный административный округ","geoData":{"type":"Point","coordinates":[37.412968021698,55.726413345576]}}},{"global_id":20441090,"Number":77,"Cells":{"global_id":20441090,"ConstructionEnd":"июнь 2014 года","District":"район Солнцево","Address":"Производственная улица, 14, корпус 1","TotalParkingSlots":312,"ConstructionBegin":"март 2010 года","AdmArea":"Западный административный округ","geoData":{"type":"Point","coordinates":[37.382831563815,55.641723753122]}}},{"global_id":20441091,"Number":78,"Cells":{"global_id":20441091,"ConstructionEnd":"август 2011 года","District":"Можайский район","Address":"Витебская улица, дом 11","TotalParkingSlots":805,"ConstructionBegin":"март 2010 года","AdmArea":"Западный административный округ","geoData":{"type":"Point","coordinates":[37.410984114401,55.708341072572]}}},{"global_id":20441092,"Number":79,"Cells":{"global_id":20441092,"ConstructionEnd":"август 2012 года","District":"район Ново-Переделкино","Address":"улица Федосьино, дом 3","TotalParkingSlots":298,"ConstructionBegin":"апрель 2010 года","AdmArea":"Западный административный округ","geoData":{"type":"Point","coordinates":[37.339278767738,55.635929600311]}}},{"global_id":20441093,"Number":80,"Cells":{"global_id":20441093,"ConstructionEnd":"декабрь 2011 года","District":"район Митино","Address":"улица Барышиха, дом 45","TotalParkingSlots":275,"ConstructionBegin":"май 2010 года","AdmArea":"Северо-Западный административный округ","geoData":{"type":"Point","coordinates":[37.348829515724,55.858384184162]}}},{"global_id":20441094,"Number":81,"Cells":{"global_id":20441094,"ConstructionEnd":"май 2013 года","District":"район Митино","Address":"Волоцкой переулок, дом 3","TotalParkingSlots":970,"ConstructionBegin":"май 2010 года","AdmArea":"Северо-Западный административный округ","geoData":{"type":"Point","coordinates":[37.347792430021,55.833541869255]}}},{"global_id":20441095,"Number":82,"Cells":{"global_id":20441095,"ConstructionEnd":"июль 2011 года","District":"район Митино","Address":"улица Генерала Белобородова, дом 38","TotalParkingSlots":239,"ConstructionBegin":"май 2010 года","AdmArea":"Северо-Западный административный округ","geoData":{"type":"Point","coordinates":[37.350522826732,55.826159215529]}}},{"global_id":20441096,"Number":83,"Cells":{"global_id":20441096,"ConstructionEnd":"декабрь 2011 года","District":"район Митино","Address":"Дубравная улица, дом 53","TotalParkingSlots":799,"ConstructionBegin":"март 2010 года","AdmArea":"Северо-Западный административный округ","geoData":{"type":"Point","coordinates":[37.350345309262,55.839517156022]}}},{"global_id":20441097,"Number":84,"Cells":{"global_id":20441097,"ConstructionEnd":"октябрь 2012 года","District":"район Куркино","Address":"Новокуркинское шоссе, дом 20","TotalParkingSlots":284,"ConstructionBegin":"декабрь 2010 года","AdmArea":"Северо-Западный административный округ","geoData":{"type":"Point","coordinates":[37.409377188814,55.885982707622]}}},{"global_id":20441098,"Number":85,"Cells":{"global_id":20441098,"ConstructionEnd":"июнь 2014 года","District":"район Строгино","Address":"Проектируемый проезд № 607, владение 14, корпус 2","TotalParkingSlots":978,"ConstructionBegin":"май 2010 года","AdmArea":"Северо-Западный административный округ","geoData":{"type":"Point","coordinates":[37.389285266371,55.79210862166]}}},{"global_id":20441099,"Number":86,"Cells":{"global_id":20441099,"ConstructionEnd":"ноябрь 2011 года","District":"район Строгино","Address":"Проектируемый проезд № 607, дом 19","TotalParkingSlots":240,"ConstructionBegin":"июль 2010 года","AdmArea":"Северо-Западный административный округ","geoData":{"type":"Point","coordinates":[37.401576063733,55.795374797495]}}},{"global_id":20441100,"Number":87,"Cells":{"global_id":20441100,"ConstructionEnd":"ноябрь 2011 года","District":"район Митино","Address":"Пятницкое шоссе, дом 19, корпус 1","TotalParkingSlots":368,"ConstructionBegin":"март 2010 года","AdmArea":"Северо-Западный административный округ","geoData":{"type":"Point","coordinates":[37.374511475258,55.845391598871]}}},{"global_id":20441101,"Number":88,"Cells":{"global_id":20441101,"ConstructionEnd":"декабрь 2011 года","District":"район Строгино","Address":"улица Твардовского, дом 8, корпус 4","TotalParkingSlots":676,"ConstructionBegin":"май 2010 года","AdmArea":"Северо-Западный административный округ","geoData":{"type":"Point","coordinates":[37.390729016334,55.793225644664]}}},{"global_id":20441102,"Number":89,"Cells":{"global_id":20441102,"ConstructionEnd":"декабрь 2011 года","District":"район Куркино","Address":"Юровская улица, дом 103","TotalParkingSlots":520,"ConstructionBegin":"июль 2010 года","AdmArea":"Северо-Западный административный округ","geoData":{"type":"Point","coordinates":[37.390987942476,55.89918532335]}}},{"global_id":20441103,"Number":90,"Cells":{"global_id":20441103,"ConstructionEnd":"декабрь 2011 года","District":"район Матушкино","Address":"2-й Западный проезд, дом 2Б","TotalParkingSlots":412,"ConstructionBegin":"июль 2010 года","AdmArea":"Зеленоградский административный округ","geoData":{"type":"Point","coordinates":[37.197369842079,56.006456293716]}}},{"global_id":20441104,"Number":91,"Cells":{"global_id":20441104,"ConstructionEnd":"июнь 2013 года","District":"район Крюково","Address":"Новокрюковская улица, дом 3А","TotalParkingSlots":345,"ConstructionBegin":"июнь 2010 года","AdmArea":"Зеленоградский административный округ","geoData":{"type":"Point","coordinates":[37.157211007814,55.989682435458]}}},{"global_id":20441105,"Number":92,"Cells":{"global_id":20441105,"ConstructionEnd":"сентябрь 2012 года","District":"район Матушкино","Address":"город Зеленоград, корпус 226","TotalParkingSlots":267,"ConstructionBegin":"ноябрь 2010 года","AdmArea":"Зеленоградский административный округ","geoData":{"type":"Point","coordinates":[37.201901413625,56.000354873003]}}},{"global_id":20441106,"Number":93,"Cells":{"global_id":20441106,"ConstructionEnd":"май 2011 года","District":"район Старое Крюково","Address":"город Зеленоград, корпус 845","TotalParkingSlots":235,"ConstructionBegin":"март 2010 года","AdmArea":"Зеленоградский административный округ","geoData":{"type":"Point","coordinates":[37.184473015712,55.976457205664]}}},{"global_id":20441107,"Number":94,"Cells":{"global_id":20441107,"ConstructionEnd":"май 2011 года","District":"район Старое Крюково","Address":"город Зеленоград, корпус 846","TotalParkingSlots":281,"ConstructionBegin":"март 2010 года","AdmArea":"Зеленоградский административный округ","geoData":{"type":"Point","coordinates":[37.184959946121,55.976851176436]}}},{"global_id":20441108,"Number":95,"Cells":{"global_id":20441108,"ConstructionEnd":"декабрь 2011 года","District":"район Крюково","Address":"город Зеленоград, корпус 2006","TotalParkingSlots":185,"ConstructionBegin":"март 2010 года","AdmArea":"Зеленоградский административный округ","geoData":{"type":"Point","coordinates":[37.162940638432,55.974899244101]}}},{"global_id":20441109,"Number":96,"Cells":{"global_id":20441109,"ConstructionEnd":"декабрь 2011 года","District":"район Крюково","Address":"город Зеленоград, корпус 2021","TotalParkingSlots":177,"ConstructionBegin":"апрель 2010 года","AdmArea":"Зеленоградский административный округ","geoData":{"type":"Point","coordinates":[37.164591843864,55.970816221857]}}},{"global_id":20441110,"Number":97,"Cells":{"global_id":20441110,"ConstructionEnd":"декабрь 2011 года","District":"район Крюково","Address":"город Зеленоград, корпус 2025","TotalParkingSlots":185,"ConstructionBegin":"март 2010 года","AdmArea":"Зеленоградский административный округ","geoData":{"type":"Point","coordinates":[37.169927055345,55.975463702109]}}},{"global_id":20441111,"Number":98,"Cells":{"global_id":20441111,"ConstructionEnd":"декабрь 2011 года","District":"район Крюково","Address":"город Зеленоград, корпус 2036","TotalParkingSlots":183,"ConstructionBegin":"апрель 2010 года","AdmArea":"Зеленоградский административный округ","geoData":{"type":"Point","coordinates":[37.174735468422,55.971633742327]}}},{"global_id":20441113,"Number":99,"Cells":{"global_id":20441113,"ConstructionEnd":"декабрь 2010 года","District":"Таганский район","Address":"Международная улица, дом 23","TotalParkingSlots":258,"ConstructionBegin":"февраль 2010 года","AdmArea":"Центральный административный округ","geoData":{"type":"Point","coordinates":[37.69023809425,55.742673556619]}}},{"global_id":20441115,"Number":100,"Cells":{"global_id":20441115,"ConstructionEnd":"декабрь 2010 года","District":"район Левобережный","Address":"Смольная улица, дом 42А","TotalParkingSlots":100,"ConstructionBegin":"февраль 2010 года","AdmArea":"Северный административный округ","geoData":{"type":"Point","coordinates":[37.474711560816,55.868359366427]}}}]