[{"Lat":0.0,"Lon":0.0,"Id":"8bb14f0d-fb6d-4cdb-a9b0-08a88360ffee","Number":1,"Cells":{"global_id":1713487,"ParkingName":"Перехватывающая парковка метрополитена «Строгино»","AdmArea":"Северо-Западный административный округ","District":"район Строгино","LocationDescription":"Строгинский бульвар, владение 14, между вестибюлями станции метро","OrgPhone":"(495) 622-02-04","CarCapacity":100,"geoData":{"type":"Point","coordinates":[37.40112300039,55.803527999947]}}},{"Lat":0.0,"Lon":0.0,"Id":"d03d690b-b07e-4cab-ad24-078aa9b6f5da","Number":2,"Cells":{"global_id":1713489,"ParkingName":"Перехватывающая парковка метрополитена «Зябликово» 2","AdmArea":"Южный административный округ","District":"район Зябликово","LocationDescription":"на пересечении Ясеневой улицы с Ореховым Бульваром, напротив пустыря с деревьями, через дорогу","OrgPhone":"(495) 622-02-04","CarCapacity":107,"geoData":{"type":"Point","coordinates":[37.744872999849,55.612121999928]}}},{"Lat":0.0,"Lon":0.0,"Id":"818b1fd5-a9f4-466c-b304-5add48ffc87c","Number":3,"Cells":{"global_id":1713490,"ParkingName":"Перехватывающая парковка метрополитена «Бульвар Дмитрия Донского»","AdmArea":"Юго-Западный административный округ","District":"район Северное Бутово","LocationDescription":"улица Грина, дом 5А, напротив Макдоналдс через дорогу","OrgPhone":"(495) 622-02-04","CarCapacity":91,"geoData":{"type":"Point","coordinates":[37.574279999785,55.566100999852]}}},{"Lat":0.0,"Lon":0.0,"Id":"da5dbcc0-7fc5-46ad-ae6c-7b3e8d455c7b","Number":4,"Cells":{"global_id":1713491,"ParkingName":"Перехватывающая парковка метрополитена «Волоколамская»","AdmArea":"Северо-Западный административный округ","District":"район Митино","LocationDescription":"Новотушинский проезд, владение 8, корпус 1, рядом с магазином «Пятерочка»","OrgPhone":"(495) 622-02-04","CarCapacity":299,"geoData":{"type":"Point","coordinates":[37.378063,55.838663]}}},{"Lat":0.0,"Lon":0.0,"Id":"f645d074-e885-46c9-9f4d-c83bd6525962","Number":5,"Cells":{"global_id":1713492,"ParkingName":"Перехватывающая парковка метрополитена «Выхино»","AdmArea":"Восточный административный округ","District":"район Вешняки","LocationDescription":"Вешняковская улица, владение 24-26, напротив бывшего рынка Выхино","OrgPhone":"(495) 622-02-04","CarCapacity":264,"geoData":{"type":"Point","coordinates":[37.821031,55.717308]}}},{"Lat":0.0,"Lon":0.0,"Id":"3ea71535-7cc3-4e78-bbbb-02ffa4881180","Number":6,"Cells":{"global_id":1713493,"ParkingName":"Перехватывающая парковка метрополитена «Зябликово» 3","AdmArea":"Южный административный округ","District":"район Зябликово","LocationDescription":"на пересечении Ясеневой улицы и Воронежской улицы, рядом с вестибюлем станции метро","OrgPhone":"(495) 622-02-04","CarCapacity":110,"geoData":{"type":"Point","coordinates":[37.745117000247,55.61090099985]}}},{"Lat":0.0,"Lon":0.0,"Id":"0eda0307-4f25-4392-b5a7-664a7d2fb30c","Number":7,"Cells":{"global_id":1713494,"ParkingName":"Перехватывающая парковка метрополитена «Шипиловская» 2","AdmArea":"Южный административный округ","District":"район Зябликово","LocationDescription":"На пересечении улицы Мусы Джалиля и Шипиловской улицы, рядом со зданием Банкетный зал","OrgPhone":"(495) 622-02-04","CarCapacity":68,"geoData":{"type":"Point","coordinates":[37.743286000136,55.623108000058]}}},{"Lat":0.0,"Lon":0.0,"Id":"9067bc29-0f23-4352-9478-b3e9cf9bacb9","Number":8,"Cells":{"global_id":1713495,"ParkingName":"Перехватывающая парковка метрополитена «Шипиловская» 3","AdmArea":"Южный административный округ","District":"район Зябликово","LocationDescription":"На пересечении улицы Мусы Джалиля и Шипиловской улицы, между вестибюлями станции метро","OrgPhone":"(495) 622-02-04","CarCapacity":115,"geoData":{"type":"Point","coordinates":[37.743712999933,55.621276999843]}}},{"Lat":0.0,"Lon":0.0,"Id":"2f9e4e6d-6db1-4396-950d-d2dcb309df3f","Number":9,"Cells":{"global_id":1713496,"ParkingName":"Перехватывающая парковка метрополитена «Бульвар Адмирала Ушакова» 1","AdmArea":"Юго-Западный административный округ","District":"район Южное Бутово","LocationDescription":"От станции метро до Веневской улицы, вдоль улицы Адмирала Лазарева, вдоль путей легкого метро","OrgPhone":"(495) 622-02-04","CarCapacity":221,"geoData":{"type":"Point","coordinates":[37.544311,55.546326]}}},{"Lat":0.0,"Lon":0.0,"Id":"23a56e4a-8d12-4aa1-bd0e-3c75441c6786","Number":10,"Cells":{"global_id":1713497,"ParkingName":"Перехватывающая парковка метрополитена «Измайловская»","AdmArea":"Восточный административный округ","District":"район Измайлово","LocationDescription":"Измайловский проспект, владение 49, вдоль путей метро, справа от вестибюля станции метро","OrgPhone":"(495) 622-02-04","CarCapacity":90,"geoData":{"type":"Point","coordinates":[37.778431999925,55.787930000029]}}},{"Lat":0.0,"Lon":0.0,"Id":"9efde04b-4a68-4d06-b502-0a90611892de","Number":11,"Cells":{"global_id":1713498,"ParkingName":"Перехватывающая парковка метрополитена «Красногвардейская» 1","AdmArea":"Южный административный округ","District":"район Зябликово","LocationDescription":"Ореховый бульвар, владение 22, на месте бывшего красногвардейского рынка","OrgPhone":"(495) 622-02-04","CarCapacity":528,"geoData":{"type":"Point","coordinates":[37.739685000013,55.6135249998]}}},{"Lat":0.0,"Lon":0.0,"Id":"8e90a382-3a57-4e21-9a2c-38900f92f279","Number":12,"Cells":{"global_id":1713499,"ParkingName":"Перехватывающая парковка метрополитена «Зябликово» 1","AdmArea":"Южный административный округ","District":"район Зябликово","LocationDescription":"на пересечении Ясеневой улицы с Ореховым Бульваром, рядом с отстойно-разворотным кругом автобусов","OrgPhone":"(495) 622-02-04","CarCapacity":32,"geoData":{"type":"Point","coordinates":[37.745117000247,55.61230499978]}}},{"Lat":0.0,"Lon":0.0,"Id":"dc7b61e8-7451-4a2a-95d8-abc9e7d17a2d","Number":13,"Cells":{"global_id":1713500,"ParkingName":"Перехватывающая парковка метрополитена «Зябликово» 4","AdmArea":"Южный административный округ","District":"район Орехово-Борисово Южное","LocationDescription":"на пересечении Ясеневой улицы и Воронежской улицы, напротив дома 44/42, между жилыми домами и дорогой","OrgPhone":"(495) 622-02-04","CarCapacity":289,"geoData":{"type":"Point","coordinates":[37.7450500003,55.609762000056]}}},{"Lat":0.0,"Lon":0.0,"Id":"23efeabe-aead-4196-b10f-055ed09e9425","Number":14,"Cells":{"global_id":1713501,"ParkingName":"Перехватывающая парковка метрополитена «Шипиловская» 1","AdmArea":"Южный административный округ","District":"район Зябликово","LocationDescription":"На пересечении улицы Мусы Джалиля и Шипиловской улицы, напротив магазин продукты и кафе через дорогу","OrgPhone":"(495) 622-02-04","CarCapacity":65,"geoData":{"type":"Point","coordinates":[37.743102999838,55.623717999817]}}},{"Lat":0.0,"Lon":0.0,"Id":"c7ce3676-c2d3-4e89-ba29-e3432fef9df4","Number":15,"Cells":{"global_id":1713502,"ParkingName":"Перехватывающая парковка метрополитена «Шипиловская» 4","AdmArea":"Южный административный округ","District":"район Зябликово","LocationDescription":"На пересечении улицы Мусы Джалиля и Шипиловской улицы, рядом с вестибюлем станции метро","OrgPhone":"(495) 622-02-04","CarCapacity":90,"geoData":{"type":"Point","coordinates":[37.743896000231,55.620117000145]}}},{"Lat":0.0,"Lon":0.0,"Id":"4c46eb2e-3d7e-48b4-a0b4-57d82f88bed6","Number":16,"Cells":{"global_id":1713503,"ParkingName":"Перехватывающая парковка метрополитена «Бульвар Адмирала Ушакова» 2","AdmArea":"Юго-Западный административный округ","District":"район Южное Бутово","LocationDescription":"От станции метро до Веневской улицы, вдоль улицы Адмирала Лазарева, вдоль путей легкого метро, ближе к вестибюлю станции метро","OrgPhone":"(495) 622-02-04","CarCapacity":42,"geoData":{"type":"Point","coordinates":[37.542896,55.546073]}}},{"Lat":0.0,"Lon":0.0,"Id":"d4b0f1ea-9705-474c-a439-dcdc3b474513","Number":17,"Cells":{"global_id":1713505,"ParkingName":"Перехватывающая парковка метрополитена «Аннино»","AdmArea":"Южный административный округ","District":"район Чертаново Южное","LocationDescription":"Варшавское шоссе, владение 170, на пересечении с МКАД по ходу движения из центра","OrgPhone":"(495) 622-02-04","CarCapacity":1048,"geoData":{"type":"Point","coordinates":[37.594482000208,55.579285000021]}}},{"Lat":0.0,"Lon":0.0,"Id":"88906c8b-cbdd-431a-825d-38262a606688","Number":18,"Cells":{"global_id":1713506,"ParkingName":"Перехватывающая парковка метрополитена «Красногвардейская» 2","AdmArea":"Южный административный округ","District":"район Зябликово","LocationDescription":"Ореховый бульвар, дом 24-2А, магазин продукты через дорогу","OrgPhone":"(495) 622-02-04","CarCapacity":158,"geoData":{"type":"Point","coordinates":[37.749329,55.614072]}}},{"Lat":0.0,"Lon":0.0,"Id":"aad32240-a869-4acb-b808-5199f2c543c1","Number":19,"Cells":{"global_id":1777274,"ParkingName":"Перехватывающая парковка метрополитена «Новокосино»","AdmArea":"Восточный административный округ","District":"район Новокосино","LocationDescription":"Суздальская улица, дом 24, корпус 1, напротив","OrgPhone":"(495) 622-02-05","CarCapacity":355,"geoData":{"type":"Point","coordinates":[37.856097000352,55.743938999927]}}},{"Lat":0.0,"Lon":0.0,"Id":"35fb0cfc-247a-47e3-9292-0fbaae149f24","Number":20,"Cells":{"global_id":272663846,"ParkingName":"Перехватывающая парковка Метрополитена «Домодедовская»","AdmArea":"Южный административный округ","District":"район Зябликово","LocationDescription":"Ореховый бульвар, владение 13","OrgPhone":"(495) 622-02-04","CarCapacity":182,"geoData":{"type":"Point","coordinates":[37.718838000234,55.61183200006]}}},{"Lat":0.0,"Lon":0.0,"Id":"9ec46234-0b83-4b35-b2ad-8ab048746b11","Number":21,"Cells":{"global_id":272663847,"ParkingName":"Перехватывающая парковка Метрополитена «Домодедовская»","AdmArea":"Южный административный округ","District":"район Зябликово","LocationDescription":"Ореховый бульвар, владение 14","OrgPhone":"(495) 622-02-04","CarCapacity":130,"geoData":{"type":"Point","coordinates":[37.720983999989,55.61121799989]}}},{"Lat":0.0,"Lon":0.0,"Id":"8d5f701d-c07f-45c2-b8f6-c4582b4952f9","Number":22,"Cells":{"global_id":272663853,"ParkingName":"Перехватывающая парковка Метрополитена «Ясенево»","AdmArea":"Юго-Западный административный округ","District":"район Ясенево","LocationDescription":"Новоясеневский проспект, владение 9","OrgPhone":"(495) 622-02-04","CarCapacity":83,"geoData":{"type":"Point","coordinates":[37.533664000127,55.606135000005]}}},{"Lat":0.0,"Lon":0.0,"Id":"9b4dd4fd-6d85-41b3-9b30-2af8f60bb55c","Number":23,"Cells":{"global_id":272663855,"ParkingName":"Перехватывающая парковка Метрополитена «Ясенево»","AdmArea":"Юго-Западный административный округ","District":"район Ясенево","LocationDescription":"Новоясеневский проспект, владение 28","OrgPhone":"(495) 622-02-04","CarCapacity":77,"geoData":{"type":"Point","coordinates":[37.533084999994,55.605472999992]}}},{"Lat":0.0,"Lon":0.0,"Id":"73273e8e-e623-4bb0-bb56-59d148c49b03","Number":24,"Cells":{"global_id":272663856,"ParkingName":"Перехватывающая парковка Метрополитена «Медведково»","AdmArea":"Северо-Восточный административный округ","District":"район Северное Медведково","LocationDescription":"Широкая улица, владение 14","OrgPhone":"(495) 622-02-04","CarCapacity":63,"geoData":{"type":"Point","coordinates":[37.661188999558,55.886661999785]}}},{"Lat":0.0,"Lon":0.0,"Id":"1e3e6357-f620-48a6-9c92-0f2680111e81","Number":25,"Cells":{"global_id":272663857,"ParkingName":"Перехватывающая парковка Метрополитена «Бибирево»","AdmArea":"Северо-Восточный административный округ","District":"район Бибирево","LocationDescription":"улица Плещеева, владение 1","OrgPhone":"(495) 622-02-04","CarCapacity":78,"geoData":{"type":"Point","coordinates":[37.603445000244,55.883457999777]}}},{"Lat":0.0,"Lon":0.0,"Id":"86a15db1-6c7d-4ba7-9546-d22a6372a685","Number":26,"Cells":{"global_id":272663858,"ParkingName":"Перехватывающая парковка Метрополитена «Бульвар Дмитрия Донского»","AdmArea":"Юго-Западный административный округ","District":"район Северное Бутово","LocationDescription":"Бульвар Дмитрия Донского, владение 9","OrgPhone":"(495) 622-02-04","CarCapacity":132,"geoData":{"type":"Point","coordinates":[37.57737100027,55.569872999947]}}},{"Lat":0.0,"Lon":0.0,"Id":"d73453a5-ef53-4d61-9439-cbcecce1a6ae","Number":27,"Cells":{"global_id":272663859,"ParkingName":"Перехватывающая парковка Метрополитена «Тимирязевская»","AdmArea":"Северный административный округ","District":"Тимирязевский район","LocationDescription":"Дмитровское шоссе, владение 17-21","OrgPhone":"(495) 622-02-04","CarCapacity":423,"geoData":{"type":"Point","coordinates":[37.574576,55.820224]}}}]