[{"Lat":0.0,"Lon":0.0,"Id":"eb259a80-2d8c-48f7-afcb-49d79b0f39ec","Number":1,"Cells":{"global_id":1711191,"Name":"Искусственная дорожная неровность по адресу Волжский бульвар, дом 12","District":"район Кузьминки","Location":"Волжский бульвар, дом 12","Material":"пластик","AdmArea":"Юго-Восточный административный округ","geoData":{"type":"Point","coordinates":[37.743735559325,55.713832368429]}}},{"Lat":0.0,"Lon":0.0,"Id":"db51082b-fc1b-49db-b865-a1efceb04ed7","Number":2,"Cells":{"global_id":1711192,"Name":"Искусственная дорожная неровность по адресу улица Коминтерна, дом 46","District":"Бабушкинский район","Location":"улица Коминтерна, дом 46","Material":"пластик","AdmArea":"Северо-Восточный административный округ","geoData":{"type":"Point","coordinates":[37.690444097446,55.871294623889]}}},{"Lat":0.0,"Lon":0.0,"Id":"0f60e060-003a-44c0-9a62-1aa4eef94cf2","Number":3,"Cells":{"global_id":1711193,"Name":"Искусственная дорожная неровность по адресу 1-я Напрудная улица, дом 15","District":"Лосиноостровский район","Location":"1-я Напрудная улица, дом 15","Material":"пластик","AdmArea":"Северо-Восточный административный округ","geoData":{"type":"Point","coordinates":[37.692688437572,55.879908528886]}}},{"Lat":0.0,"Lon":0.0,"Id":"7af189ba-4eef-4740-9e09-7d02d7119191","Number":4,"Cells":{"global_id":1711194,"Name":"Искусственная дорожная неровность по адресу 8-я Северная линия, дом 15","District":"район Северный","Location":"8-я Северная линия, дом 15","Material":"пластик","AdmArea":"Северо-Восточный административный округ","geoData":{"type":"Point","coordinates":[37.547759972799,55.936530143951]}}},{"Lat":0.0,"Lon":0.0,"Id":"1d8bae98-d986-46f5-88e4-8b87a8ddbd0d","Number":5,"Cells":{"global_id":1711195,"Name":"Искусственная дорожная неровность по адресу 1-я Северная линия, дом 12","District":"район Северный","Location":"1-я Северная линия, дом 12","Material":"пластик","AdmArea":"Северо-Восточный административный округ","geoData":{"type":"Point","coordinates":[37.554870174205,55.94372017059]}}},{"Lat":0.0,"Lon":0.0,"Id":"a3cc5d41-ead1-4ef0-994a-968f73b163ca","Number":6,"Cells":{"global_id":1711196,"Name":"Искусственная дорожная неровность по адресу Никольский проезд, дом 5","District":"район Савёлки","Location":"Никольский проезд, дом 5","Material":"пластик","AdmArea":"Зеленоградский административный округ","geoData":{"type":"Point","coordinates":[37.247188622161,55.992218276151]}}},{"Lat":0.0,"Lon":0.0,"Id":"224eeafb-cdf0-4ed7-b22a-215f41dc15fa","Number":7,"Cells":{"global_id":1711197,"Name":"Искусственная дорожная неровность 1 по адресу Часовая улица, дом 19А","District":"район Аэропорт","Location":"Часовая улица, дом 19А","Material":"пластик","AdmArea":"Северный административный округ","geoData":{"type":"Point","coordinates":[37.524822049872,55.809899644443]}}},{"Lat":0.0,"Lon":0.0,"Id":"5082a5d4-2122-4dd6-aaf4-d0ec0c3271fb","Number":8,"Cells":{"global_id":1711198,"Name":"Искусственная дорожная неровность по адресу Типографская улица, дом 5А","District":"район Южное Бутово","Location":"Типографская улица, дом 5А","Material":"пластик","AdmArea":"Юго-Западный административный округ","geoData":{"type":"Point","coordinates":[37.588717920661,55.508692076932]}}},{"Lat":0.0,"Lon":0.0,"Id":"8a8bb96d-11a2-487f-bc0d-ddf8ebc3a284","Number":9,"Cells":{"global_id":1711199,"Name":"Искусственная дорожная неровность по адресу 1-я Мелитопольская улица, дом 8","District":"район Южное Бутово","Location":"1-я Мелитопольская улица, дом 8","Material":"асфальт","AdmArea":"Юго-Западный административный округ","geoData":{"type":"Point","coordinates":[37.578517176911,55.540180095382]}}},{"Lat":0.0,"Lon":0.0,"Id":"7be119bb-7932-4862-827e-9300a7aa4136","Number":10,"Cells":{"global_id":1711200,"Name":"Искусственная дорожная неровность по адресу Джанкойская улица, дом 2, корпус 1","District":"район Южное Бутово","Location":"Джанкойская улица, дом 2, корпус 1","Material":"асфальт","AdmArea":"Юго-Западный административный округ","geoData":{"type":"Point","coordinates":[37.575411347037,55.540435478794]}}},{"Lat":0.0,"Lon":0.0,"Id":"0b25a81b-96a5-4455-b9bf-2358b34bfe4e","Number":11,"Cells":{"global_id":1711201,"Name":"Искусственная дорожная неровность по адресу Большая Бутовская улица, дом 9","District":"район Южное Бутово","Location":"Большая Бутовская улица, дом 9","Material":"пластик","AdmArea":"Юго-Западный административный округ","geoData":{"type":"Point","coordinates":[37.580837456119,55.544457914662]}}},{"Lat":0.0,"Lon":0.0,"Id":"7ce8e327-df34-4a7e-99ed-5cfb4ddaf388","Number":12,"Cells":{"global_id":1711202,"Name":"Искусственная дорожная неровность по адресу улица Адмирала Лазарева, дом 13","District":"район Южное Бутово","Location":"улица Адмирала Лазарева, дом 13","Material":"пластик","AdmArea":"Юго-Западный административный округ","geoData":{"type":"Point","coordinates":[37.538047673611,55.545741905129]}}},{"Lat":0.0,"Lon":0.0,"Id":"d01fa9f0-448e-402f-b9fa-0600c8cca75f","Number":13,"Cells":{"global_id":1711203,"Name":"Искусственная дорожная неровность по адресу улица Академика Глушко, дом 12","District":"район Северное Бутово","Location":"улица Академика Глушко, дом 12","Material":"пластик","AdmArea":"Юго-Западный административный округ","geoData":{"type":"Point","coordinates":[37.565098924731,55.565091426011]}}},{"Lat":0.0,"Lon":0.0,"Id":"c7ede2ae-5d58-4b97-a11e-9a5bbb26fd20","Number":14,"Cells":{"global_id":1711204,"Name":"Искусственная дорожная неровность по адресу Куликовская улица, дом 1Б","District":"район Северное Бутово","Location":"Куликовская улица, дом 1Б","Material":"пластик","AdmArea":"Юго-Западный административный округ","geoData":{"type":"Point","coordinates":[37.564397025185,55.571872115728]}}},{"Lat":0.0,"Lon":0.0,"Id":"a90d8018-9aac-498d-8816-b62f4df80fdc","Number":15,"Cells":{"global_id":1711205,"Name":"Искусственная дорожная неровность по адресу Ратная улица, дом 8, корпус 3","District":"район Северное Бутово","Location":"Ратная улица, дом 8, корпус 3","Material":"пластик","AdmArea":"Юго-Западный административный округ","geoData":{"type":"Point","coordinates":[37.58021992365,55.573358073046]}}},{"Lat":0.0,"Lon":0.0,"Id":"4fb43959-ebd8-45f6-91bd-d11e6d257d66","Number":16,"Cells":{"global_id":1711206,"Name":"Искусственная дорожная неровность по адресу Старобитцевская улица, дом 17, корпус 1","District":"район Северное Бутово","Location":"Старобитцевская улица, дом 17, корпус 1","Material":"пластик","AdmArea":"Юго-Западный административный округ","geoData":{"type":"Point","coordinates":[37.582867387252,55.576738787884]}}},{"Lat":0.0,"Lon":0.0,"Id":"36344a1c-52af-48cb-a3f0-d7493e4cdc72","Number":17,"Cells":{"global_id":1711207,"Name":"Искусственная дорожная неровность по адресу Булатниковский проезд, дом 16","District":"район Бирюлёво Западное","Location":"Булатниковский проезд, дом 16","Material":"пластик","AdmArea":"Южный административный округ","geoData":{"type":"Point","coordinates":[37.659829349968,55.577867969469]}}},{"Lat":0.0,"Lon":0.0,"Id":"a14393da-a5a6-4013-90f2-e5d9c7ab17f3","Number":18,"Cells":{"global_id":1711208,"Name":"Искусственная дорожная неровность по адресу Михневская улица, дом 17","District":"район Бирюлёво Восточное","Location":"Михневская улица, дом 17","Material":"пластик","AdmArea":"Южный административный округ","geoData":{"type":"Point","coordinates":[37.663821482853,55.579398910573]}}},{"Lat":0.0,"Lon":0.0,"Id":"b2bdf1d8-17b7-47ca-bddd-3c147cc8e065","Number":19,"Cells":{"global_id":1711209,"Name":"Искусственная дорожная неровность по адресу Булатниковская улица, дом 7","District":"район Бирюлёво Западное","Location":"Булатниковская улица, дом 7","Material":"пластик","AdmArea":"Южный административный округ","geoData":{"type":"Point","coordinates":[37.65166822568,55.580025096355]}}},{"Lat":0.0,"Lon":0.0,"Id":"aecf6bca-d534-4083-bfc2-16a6f04183a5","Number":20,"Cells":{"global_id":1711210,"Name":"Искусственная дорожная неровность по адресу Варшавское шоссе, дом 143, корпус 6","District":"район Чертаново Южное","Location":"Варшавское шоссе, дом 143, корпус 6","Material":"пластик","AdmArea":"Южный административный округ","geoData":{"type":"Point","coordinates":[37.598534001315,55.580730373306]}}},{"Lat":0.0,"Lon":0.0,"Id":"7d919987-90d0-4b02-b7ea-1bb5a66a2b6d","Number":21,"Cells":{"global_id":1711211,"Name":"Искусственная дорожная неровность по адресу улица Мусы Джалиля, дом 16","District":"район Зябликово","Location":"улица Мусы Джалиля, дом 16","Material":"пластик","AdmArea":"Южный административный округ","geoData":{"type":"Point","coordinates":[37.74262294015,55.623992459687]}}},{"Lat":0.0,"Lon":0.0,"Id":"204a39ee-22fa-46e1-9879-f30c1fbf2312","Number":22,"Cells":{"global_id":1711212,"Name":"Искусственная дорожная неровность по адресу Весёлая улица, дом 12","District":"район Царицыно","Location":"Весёлая улица, дом 12","Material":"пластик","AdmArea":"Южный административный округ","geoData":{"type":"Point","coordinates":[37.663003075409,55.623996915509]}}},{"Lat":0.0,"Lon":0.0,"Id":"65917bdf-719a-48c7-b2ed-79f234d7fe66","Number":23,"Cells":{"global_id":1711213,"Name":"Искусственная дорожная неровность по адресу Днепропетровская улица, дом 13","District":"район Чертаново Центральное","Location":"Днепропетровская улица, дом 13","Material":"пластик","AdmArea":"Южный административный округ","geoData":{"type":"Point","coordinates":[37.592034843847,55.624013990663]}}},{"Lat":0.0,"Lon":0.0,"Id":"694542c7-f1f0-48d1-b7a7-7b994b0a20a5","Number":24,"Cells":{"global_id":1711214,"Name":"Искусственная дорожная неровность по адресу Днепропетровская улица, дом 15","District":"район Чертаново Центральное","Location":"Днепропетровская улица, дом 15","Material":"пластик","AdmArea":"Южный административный округ","geoData":{"type":"Point","coordinates":[37.591015605444,55.624114819385]}}},{"Lat":0.0,"Lon":0.0,"Id":"ff603442-4bd3-4dfa-ae5b-a5e07918a061","Number":25,"Cells":{"global_id":1711215,"Name":"Искусственная дорожная неровность по адресу улица Академика Капицы, дом 11","District":"район Ясенево","Location":"улица Академика Капицы, дом 11","Material":"пластик","AdmArea":"Юго-Западный административный округ","geoData":{"type":"Point","coordinates":[37.524317952166,55.625384148998]}}},{"Lat":0.0,"Lon":0.0,"Id":"05e0ee21-5596-4601-88e8-5e8b2e5e7a6a","Number":26,"Cells":{"global_id":1711216,"Name":"Искусственная дорожная неровность по адресу Борисовский проезд, дом 20","District":"район Орехово-Борисово Северное","Location":"Борисовский проезд, дом 20","Material":"пластик","AdmArea":"Южный административный округ","geoData":{"type":"Point","coordinates":[37.72641066423,55.625670888357]}}},{"Lat":0.0,"Lon":0.0,"Id":"fe6cfb8d-9472-4311-8382-f4b7c2748b59","Number":27,"Cells":{"global_id":1711217,"Name":"Искусственная дорожная неровность по адресу Булатниковский проезд, дом 14, корпус 3","District":"район Бирюлёво Западное","Location":"Булатниковский проезд, дом 14, корпус 3","Material":"пластик","AdmArea":"Южный административный округ","geoData":{"type":"Point","coordinates":[37.658828887253,55.582830749188]}}},{"Lat":0.0,"Lon":0.0,"Id":"0c36a314-518f-4d85-987d-0a9942f29cd0","Number":28,"Cells":{"global_id":1711218,"Name":"Искусственная дорожная неровность по адресу Медынская улица, дом 12, корпус 1","District":"район Бирюлёво Западное","Location":"Медынская улица, дом 12, корпус 1","Material":"пластик","AdmArea":"Южный административный округ","geoData":{"type":"Point","coordinates":[37.646767327409,55.584569913577]}}},{"Lat":0.0,"Lon":0.0,"Id":"23bc1c43-8787-40f3-8688-5dfda85cef7c","Number":29,"Cells":{"global_id":1711219,"Name":"Искусственная дорожная неровность по адресу Бирюлёвская улица, дом 52, корпус 1","District":"район Бирюлёво Восточное","Location":"Бирюлёвская улица, дом 52, корпус 1","Material":"пластик","AdmArea":"Южный административный округ","geoData":{"type":"Point","coordinates":[37.667419498773,55.585107904731]}}},{"Lat":0.0,"Lon":0.0,"Id":"c817a654-3dfc-4a64-9f98-2286023ecb06","Number":30,"Cells":{"global_id":1711220,"Name":"Искусственная дорожная неровность по адресу Лебедянская улица, дом 14, корпус 1","District":"район Бирюлёво Восточное","Location":"Лебедянская улица, дом 14, корпус 1","Material":"пластик","AdmArea":"Южный административный округ","geoData":{"type":"Point","coordinates":[37.674249910901,55.58657903058]}}},{"Lat":0.0,"Lon":0.0,"Id":"57b76a22-e009-41ad-a4f2-f7c893c6da3d","Number":31,"Cells":{"global_id":1711221,"Name":"Искусственная дорожная неровность по адресу Лебедянская улица, дом 12, корпус 1","District":"район Бирюлёво Восточное","Location":"Лебедянская улица, дом 12, корпус 1","Material":"асфальт","AdmArea":"Южный административный округ","geoData":{"type":"Point","coordinates":[37.670929336962,55.586806899903]}}},{"Lat":0.0,"Lon":0.0,"Id":"cf1be1e7-9d5c-4214-9468-45f5d5f9cc93","Number":32,"Cells":{"global_id":1711222,"Name":"Искусственная дорожная неровность по адресу Медынская улица, дом 7, строение 1","District":"район Бирюлёво Западное","Location":"Медынская улица, дом 7, строение 1","Material":"пластик","AdmArea":"Южный административный округ","geoData":{"type":"Point","coordinates":[37.647996449093,55.587042079599]}}},{"Lat":0.0,"Lon":0.0,"Id":"aedae352-38fc-4a6a-8011-498ce7761e2b","Number":33,"Cells":{"global_id":1711223,"Name":"Искусственная дорожная неровность по адресу улица Газопровод, дом 11, корпус 1","District":"район Чертаново Южное","Location":"улица Газопровод, дом 11, корпус 1","Material":"пластик","AdmArea":"Южный административный округ","geoData":{"type":"Point","coordinates":[37.610082755184,55.589127304807]}}},{"Lat":0.0,"Lon":0.0,"Id":"07712179-874b-4d5f-9afc-61a8bd2edfad","Number":34,"Cells":{"global_id":1711224,"Name":"Искусственная дорожная неровность по адресу Варшавское шоссе, дом 152, корпус 2","District":"район Чертаново Южное","Location":"Варшавское шоссе, дом 152, корпус 2","Material":"пластик","AdmArea":"Южный административный округ","geoData":{"type":"Point","coordinates":[37.598418500428,55.589310349005]}}},{"Lat":0.0,"Lon":0.0,"Id":"6f1a53c2-70b9-4108-b15b-3cac18c26827","Number":35,"Cells":{"global_id":1711225,"Name":"Искусственная дорожная неровность по адресу Ряжская улица, дом 13, корпус 2","District":"район Бирюлёво Восточное","Location":"Ряжская улица, дом 13, корпус 2","Material":"пластик","AdmArea":"Южный административный округ","geoData":{"type":"Point","coordinates":[37.668956907889,55.589956409019]}}},{"Lat":0.0,"Lon":0.0,"Id":"2585c9a8-d657-4cb9-85f6-19ee738640e0","Number":36,"Cells":{"global_id":1711226,"Name":"Искусственная дорожная неровность по адресу улица Газопровод, дом 11, корпус 2","District":"район Чертаново Южное","Location":"улица Газопровод, дом 11, корпус 2","Material":"пластик","AdmArea":"Южный административный округ","geoData":{"type":"Point","coordinates":[37.607924249084,55.590993404273]}}},{"Lat":0.0,"Lon":0.0,"Id":"42d777fe-c05a-4e16-8bf3-45769fc07f2d","Number":37,"Cells":{"global_id":1711227,"Name":"Искусственная дорожная неровность по адресу Педагогическая улица, дом 3","District":"район Бирюлёво Восточное","Location":"Педагогическая улица, дом 3","Material":"пластик","AdmArea":"Южный административный округ","geoData":{"type":"Point","coordinates":[37.66630940027,55.595623898379]}}},{"Lat":0.0,"Lon":0.0,"Id":"46781166-0e8d-48b1-b9d1-f3ce602ace44","Number":38,"Cells":{"global_id":1711228,"Name":"Искусственная дорожная неровность по адресу улица Академика Янгеля, дом 4, корпус 2","District":"район Чертаново Южное","Location":"улица Академика Янгеля, дом 4, корпус 2","Material":"пластик","AdmArea":"Южный административный округ","geoData":{"type":"Point","coordinates":[37.594181487694,55.595635110204]}}},{"Lat":0.0,"Lon":0.0,"Id":"7c18d72d-468e-42ba-8935-845df2089c61","Number":39,"Cells":{"global_id":1711229,"Name":"Искусственная дорожная неровность по адресу Кировоградская улица, дом 25, корпус 2","District":"район Чертаново Южное","Location":"Кировоградская улица, дом 25, корпус 2","Material":"пластик","AdmArea":"Южный административный округ","geoData":{"type":"Point","coordinates":[37.596640248492,55.596730108211]}}},{"Lat":0.0,"Lon":0.0,"Id":"ca61613c-aec6-4390-b90e-8210b062f054","Number":40,"Cells":{"global_id":1711230,"Name":"Искусственная дорожная неровность по адресу Дорожная улица, дом 26","District":"район Чертаново Южное","Location":"Дорожная улица, дом 26","Material":"пластик","AdmArea":"Южный административный округ","geoData":{"type":"Point","coordinates":[37.619799058163,55.597167526233]}}},{"Lat":0.0,"Lon":0.0,"Id":"ad390688-b9e0-43e5-8b37-8c9d1cd55ce4","Number":41,"Cells":{"global_id":1711231,"Name":"Искусственная дорожная неровность по адресу Вильнюсская улица, дом 12","District":"район Ясенево","Location":"Вильнюсская улица, дом 12","Material":"асфальт","AdmArea":"Юго-Западный административный округ","geoData":{"type":"Point","coordinates":[37.518489007968,55.598518220386]}}},{"Lat":0.0,"Lon":0.0,"Id":"869cd15e-7e39-41a7-a0a1-6d2a8f7dcc19","Number":42,"Cells":{"global_id":1711232,"Name":"Искусственная дорожная неровность по адресу Кировоградская улица, дом 23, строение 3","District":"район Чертаново Южное","Location":"Кировоградская улица, дом 23, строение 3","Material":"пластик","AdmArea":"Южный административный округ","geoData":{"type":"Point","coordinates":[37.59755586982,55.598627410871]}}},{"Lat":0.0,"Lon":0.0,"Id":"28b77c67-54b2-463e-a296-d95ea61778bf","Number":43,"Cells":{"global_id":1711233,"Name":"Искусственная дорожная неровность по адресу Кировоградская улица, дом 42, корпус 1","District":"район Чертаново Южное","Location":"Кировоградская улица, дом 42, корпус 1","Material":"пластик","AdmArea":"Южный административный округ","geoData":{"type":"Point","coordinates":[37.598676954718,55.600929697774]}}},{"Lat":0.0,"Lon":0.0,"Id":"9a31b2fe-3a7b-4e07-b7d9-27e1d74d5dee","Number":44,"Cells":{"global_id":1711235,"Name":"Искусственная дорожная неровность по адресу Дорожная улица, дом 7","District":"район Чертаново Южное","Location":"Дорожная улица, дом 7","Material":"пластик","AdmArea":"Южный административный округ","geoData":{"type":"Point","coordinates":[37.622842191918,55.603344659446]}}},{"Lat":0.0,"Lon":0.0,"Id":"922667fa-19c9-4d7c-ba2c-c63fde104597","Number":45,"Cells":{"global_id":1711236,"Name":"Искусственная дорожная неровность по адресу улица Генерала Белова, дом 55","District":"район Орехово-Борисово Южное","Location":"улица Генерала Белова, дом 55","Material":"пластик","AdmArea":"Южный административный округ","geoData":{"type":"Point","coordinates":[37.725887799819,55.603832663363]}}},{"Lat":0.0,"Lon":0.0,"Id":"947756f4-8ad6-4fc1-bc40-ccb17f5ae12c","Number":46,"Cells":{"global_id":1711238,"Name":"Искусственная дорожная неровность по адресу Воронежская улица, дом 54","District":"район Орехово-Борисово Южное","Location":"Воронежская улица, дом 54","Material":"пластик","AdmArea":"Южный административный округ","geoData":{"type":"Point","coordinates":[37.760831618482,55.611220925912]}}},{"Lat":0.0,"Lon":0.0,"Id":"444720fd-4892-46ed-ab79-8692077756d6","Number":47,"Cells":{"global_id":1711239,"Name":"Искусственная дорожная неровность по адресу Воронежская улица, дом 52, корпус 1, строение 3","District":"район Орехово-Борисово Южное","Location":"Воронежская улица, дом 52, корпус 1, строение 3","Material":"пластик","AdmArea":"Южный административный округ","geoData":{"type":"Point","coordinates":[37.758675121913,55.611795373334]}}},{"Lat":0.0,"Lon":0.0,"Id":"fa4d5aaa-487b-4f5a-bec5-9920daeb7509","Number":48,"Cells":{"global_id":1711244,"Name":"Искусственная дорожная неровность по адресу Ореховый проезд, дом 43А","District":"район Зябликово","Location":"Ореховый проезд, дом 43А","Material":"асфальт","AdmArea":"Южный административный округ","geoData":{"type":"Point","coordinates":[37.729460502112,55.614967536559]}}},{"Lat":0.0,"Lon":0.0,"Id":"40aab3de-3943-437e-9207-519aec046328","Number":49,"Cells":{"global_id":1711245,"Name":"Искусственная дорожная неровность по адресу Соловьиный проезд, дом 6, корпус 1","District":"район Ясенево","Location":"Соловьиный проезд, дом 6, корпус 1","Material":"пластик","AdmArea":"Юго-Западный административный округ","geoData":{"type":"Point","coordinates":[37.550785990054,55.615632618574]}}},{"Lat":0.0,"Lon":0.0,"Id":"298e49be-23ca-4e9b-8ecd-26e37072fa30","Number":50,"Cells":{"global_id":1711246,"Name":"Искусственная дорожная неровность по адресу Днепропетровская улица, дом 33","District":"район Чертаново Центральное","Location":"Днепропетровская улица, дом 33","Material":"пластик","AdmArea":"Южный административный округ","geoData":{"type":"Point","coordinates":[37.584337910507,55.616547305178]}}},{"Lat":0.0,"Lon":0.0,"Id":"3c338da3-c6e7-40a9-86de-3f681e1eeb58","Number":51,"Cells":{"global_id":1711247,"Name":"Искусственная дорожная неровность по адресу Кировоградская улица, дом 11, строение, 2","District":"район Чертаново Центральное","Location":"Кировоградская улица, дом 11, строение 2","Material":"пластик","AdmArea":"Южный административный округ","geoData":{"type":"Point","coordinates":[37.606569791756,55.616727301441]}}},{"Lat":0.0,"Lon":0.0,"Id":"ff8000af-e389-4728-bc35-6dcb2ad1c806","Number":52,"Cells":{"global_id":1711248,"Name":"Искусственная дорожная неровность по адресу Ореховый бульвар, дом 63, корпус 1","District":"район Зябликово","Location":"Ореховый бульвар, дом 63, корпус 1","Material":"пластик","AdmArea":"Южный административный округ","geoData":{"type":"Point","coordinates":[37.760447224881,55.617274032298]}}},{"Lat":0.0,"Lon":0.0,"Id":"bf912b74-6afb-40ec-84be-e4de2aea383e","Number":53,"Cells":{"global_id":1711250,"Name":"Искусственная дорожная неровность по адресу улица Мусы Джалиля, дом 38, корпус 1","District":"район Зябликово","Location":"улица Мусы Джалиля, дом 38, корпус 1","Material":"пластик","AdmArea":"Южный административный округ","geoData":{"type":"Point","coordinates":[37.743697668386,55.617517756859]}}},{"Lat":0.0,"Lon":0.0,"Id":"1834312e-d0c5-492c-befd-26ab5cd1c8d1","Number":54,"Cells":{"global_id":1711251,"Name":"Искусственная дорожная неровность по адресу Кустанайская улица, дом 6","District":"район Зябликово","Location":"Кустанайская улица, дом 6","Material":"пластик","AdmArea":"Южный административный округ","geoData":{"type":"Point","coordinates":[37.753393517624,55.61951331916]}}},{"Lat":0.0,"Lon":0.0,"Id":"4ff5836b-71ad-49c3-8910-df340b7a5b84","Number":55,"Cells":{"global_id":1711252,"Name":"Искусственная дорожная неровность по адресу Днепропетровская улица, дом 25А","District":"район Чертаново Центральное","Location":"Днепропетровская улица, дом 25А","Material":"пластик","AdmArea":"Южный административный округ","geoData":{"type":"Point","coordinates":[37.584020404563,55.620246910282]}}},{"Lat":0.0,"Lon":0.0,"Id":"62fb3a19-9114-4e7f-ae5e-b0e381323fa0","Number":56,"Cells":{"global_id":1711253,"Name":"Искусственная дорожная неровность по адресу Севанская улица, дом 6","District":"район Царицыно","Location":"Севанская улица, дом 6","Material":"пластик","AdmArea":"Южный административный округ","geoData":{"type":"Point","coordinates":[37.662119789838,55.621134644315]}}},{"Lat":0.0,"Lon":0.0,"Id":"c8e92747-b005-4c8f-8b96-f3d5e9c2513d","Number":57,"Cells":{"global_id":1711254,"Name":"Искусственная дорожная неровность по адресу Днепропетровская улица, дом 5","District":"район Чертаново Центральное","Location":"Днепропетровская улица, дом 5","Material":"пластик","AdmArea":"Южный административный округ","geoData":{"type":"Point","coordinates":[37.602055911065,55.622503862978]}}},{"Lat":0.0,"Lon":0.0,"Id":"bae194dc-90ec-4aae-9143-cab7cff1ff04","Number":58,"Cells":{"global_id":1711255,"Name":"Искусственная дорожная неровность по адресу Севанская улица, дом 19","District":"район Царицыно","Location":"Севанская улица, дом 19","Material":"пластик","AdmArea":"Южный административный округ","geoData":{"type":"Point","coordinates":[37.651887667036,55.623946357997]}}},{"Lat":0.0,"Lon":0.0,"Id":"5fbad319-e7f3-4a22-b4cf-77bc348693dd","Number":59,"Cells":{"global_id":1711256,"Name":"Искусственная дорожная неровность по адресу Армавирская улица, дом 4","District":"район Люблино","Location":"Армавирская улица, дом 4","Material":"пластик","AdmArea":"Юго-Восточный административный округ","geoData":{"type":"Point","coordinates":[37.752453741496,55.675158794641]}}},{"Lat":0.0,"Lon":0.0,"Id":"5f91cc07-aed5-429c-8405-e58ccb820548","Number":60,"Cells":{"global_id":1711257,"Name":"Искусственная дорожная неровность по адресу Большая Очаковская улица, дом 42","District":"район Очаково-Матвеевское","Location":"Большая Очаковская улица, дом 42","Material":"пластик","AdmArea":"Западный административный округ","geoData":{"type":"Point","coordinates":[37.446793398842,55.676138959044]}}},{"Lat":0.0,"Lon":0.0,"Id":"43d8bd7c-3576-4b9a-b2ac-df7b4e808b67","Number":61,"Cells":{"global_id":1711258,"Name":"Искусственная дорожная неровность по адресу улица Гурьянова, дом 75","District":"район Печатники","Location":"улица Гурьянова, дом 75","Material":"пластик","AdmArea":"Юго-Восточный административный округ","geoData":{"type":"Point","coordinates":[37.721511000244,55.676416000246]}}},{"Lat":0.0,"Lon":0.0,"Id":"9d820099-6f64-4608-ab4d-5c86bcbb728c","Number":62,"Cells":{"global_id":1711260,"Name":"Искусственная дорожная неровность по адресу улица Вавилова, дом 86","District":"Ломоносовский район","Location":"улица Вавилова, дом 86","Material":"пластик","AdmArea":"Юго-Западный административный округ","geoData":{"type":"Point","coordinates":[37.541476213369,55.676733947002]}}},{"Lat":0.0,"Lon":0.0,"Id":"db3d93f1-5e75-4d25-958e-e0a1e61c211d","Number":63,"Cells":{"global_id":1711261,"Name":"Искусственная дорожная неровность по адресу улица Садовники, дом 4","District":"район Нагатино-Садовники","Location":"улица Садовники, дом 4","Material":"пластик","AdmArea":"Южный административный округ","geoData":{"type":"Point","coordinates":[37.650174408211,55.677870184405]}}},{"Lat":0.0,"Lon":0.0,"Id":"0fde07f5-6983-4cf3-a073-8356e4eba125","Number":64,"Cells":{"global_id":1711262,"Name":"Искусственная дорожная неровность по адресу Озёрная улица, дом 18","District":"район Очаково-Матвеевское","Location":"Озёрная улица, дом 18","Material":"пластик","AdmArea":"Западный административный округ","geoData":{"type":"Point","coordinates":[37.455894,55.678986]}}},{"Lat":0.0,"Lon":0.0,"Id":"ef6a79ff-8ae0-45e4-9862-3d048f842fa9","Number":65,"Cells":{"global_id":1711263,"Name":"Искусственная дорожная неровность по адресу Нагорная улица, дом 21, корпус 1","District":"район Котловка","Location":"Нагорная улица, дом 21, корпус 1","Material":"пластик","AdmArea":"Юго-Западный административный округ","geoData":{"type":"Point","coordinates":[37.603126954412,55.678470826968]}}},{"Lat":0.0,"Lon":0.0,"Id":"75784f02-4ba0-45bc-a5c1-a6210d52bab1","Number":66,"Cells":{"global_id":1711264,"Name":"Искусственная дорожная неровность по адресу улица Авиаконструктора Миля, дом 19","District":"район Выхино-Жулебино","Location":"улица Авиаконструктора Миля, дом 19","Material":"пластик","AdmArea":"Юго-Восточный административный округ","geoData":{"type":"Point","coordinates":[37.858050999589,55.679394999934]}}},{"Lat":0.0,"Lon":0.0,"Id":"9f88970d-344d-4968-bc22-277f661cb395","Number":67,"Cells":{"global_id":1711265,"Name":"Искусственная дорожная неровность по адресу Высокая улица, дом 6","District":"район Нагатино-Садовники","Location":"Высокая улица, дом 6","Material":"пластик","AdmArea":"Южный административный округ","geoData":{"type":"Point","coordinates":[37.6544064326,55.679549138995]}}},{"Lat":0.0,"Lon":0.0,"Id":"3e017935-b407-437b-8910-d28e7e3bbbd9","Number":68,"Cells":{"global_id":1711266,"Name":"Искусственная дорожная неровность по адресу Коломенская набережная, дом 10","District":"район Нагатинский Затон","Location":"Коломенская набережная, дом 10","Material":"пластик","AdmArea":"Южный административный округ","geoData":{"type":"Point","coordinates":[37.706350594029,55.679564200453]}}},{"Lat":0.0,"Lon":0.0,"Id":"684a9003-f82d-49ca-b2a4-98426c884815","Number":69,"Cells":{"global_id":1711267,"Name":"Искусственная дорожная неровность по адресу улица Полбина, дом 42, строение 2","District":"район Печатники","Location":"улица Полбина, дом 42, строение 2","Material":"асфальт","AdmArea":"Юго-Восточный административный округ","geoData":{"type":"Point","coordinates":[37.727902143384,55.679818807956]}}},{"Lat":0.0,"Lon":0.0,"Id":"06b44b6d-f577-4090-bafc-2db5482370fc","Number":70,"Cells":{"global_id":1711268,"Name":"Искусственная дорожная неровность по адресу улица Гурьянова, дом 55","District":"район Печатники","Location":"улица Гурьянова, дом 55","Material":"пластик","AdmArea":"Юго-Восточный административный округ","geoData":{"type":"Point","coordinates":[37.71650560365,55.680051817905]}}},{"Lat":0.0,"Lon":0.0,"Id":"95ab3e0a-72ed-4d2d-af4a-f24a4ccd33f7","Number":71,"Cells":{"global_id":1711269,"Name":"Искусственная дорожная неровность по адресу Затонная улица, дом 7","District":"район Нагатинский Затон","Location":"Затонная улица, дом 7","Material":"пластик","AdmArea":"Южный административный округ","geoData":{"type":"Point","coordinates":[37.683912070621,55.680100218346]}}},{"Lat":0.0,"Lon":0.0,"Id":"9c1e4dad-0ae7-4041-9edd-e2ce0eddc797","Number":72,"Cells":{"global_id":1711270,"Name":"Искусственная дорожная неровность по адресу Коломенская набережная, дом 8","District":"район Нагатинский Затон","Location":"Коломенская набережная, дом 8","Material":"пластик","AdmArea":"Южный административный округ","geoData":{"type":"Point","coordinates":[37.707224994364,55.680234056433]}}},{"Lat":0.0,"Lon":0.0,"Id":"e979160c-ccd7-41d4-9dfe-3db4664b9c01","Number":73,"Cells":{"global_id":1711271,"Name":"Искусственная дорожная неровность по адресу Нагорная улица, дом 11","District":"район Котловка","Location":"Нагорная улица, дом 11","Material":"пластик","AdmArea":"Юго-Западный административный округ","geoData":{"type":"Point","coordinates":[37.607980411755,55.680570873327]}}},{"Lat":0.0,"Lon":0.0,"Id":"2b2243ee-2806-48ec-a483-c1918bef6c86","Number":74,"Cells":{"global_id":1711272,"Name":"Искусственная дорожная неровность по адресу улица Авиаконструктора Миля, дом 15, корпус 1","District":"район Выхино-Жулебино","Location":"улица Авиаконструктора Миля, дом 15, корпус 1","Material":"пластик","AdmArea":"Юго-Восточный административный округ","geoData":{"type":"Point","coordinates":[37.857110517385,55.680697420629]}}},{"Lat":0.0,"Lon":0.0,"Id":"11ea3883-a10a-462d-a02d-349f83dd2018","Number":75,"Cells":{"global_id":1711273,"Name":"Искусственная дорожная неровность по адресу улица Маршала Полубоярова, дом 22","District":"район Выхино-Жулебино","Location":"улица Маршала Полубоярова, дом 22","Material":"пластик","AdmArea":"Юго-Восточный административный округ","geoData":{"type":"Point","coordinates":[37.861542366619,55.682202168605]}}},{"Lat":0.0,"Lon":0.0,"Id":"1e6fa2a5-285d-41f7-8d32-6a2588eeb743","Number":76,"Cells":{"global_id":1711274,"Name":"Искусственная дорожная неровность по адресу Коломенская улица, дом 7, строение 2","District":"район Нагатинский Затон","Location":"Коломенская улица, дом 7, строение 2","Material":"пластик","AdmArea":"Южный административный округ","geoData":{"type":"Point","coordinates":[37.701726465799,55.68234054238]}}},{"Lat":0.0,"Lon":0.0,"Id":"6b3081d7-f127-4543-8d16-92f9f7a8bbfe","Number":77,"Cells":{"global_id":1711276,"Name":"Искусственная дорожная неровность по адресу улица Маршала Полубоярова, дом 20","District":"район Выхино-Жулебино","Location":"улица Маршала Полубоярова, дом 20","Material":"пластик","AdmArea":"Юго-Восточный административный округ","geoData":{"type":"Point","coordinates":[37.861931926432,55.682843072478]}}},{"Lat":0.0,"Lon":0.0,"Id":"d619a152-a427-4ed3-a02d-d86e0881df55","Number":78,"Cells":{"global_id":1711277,"Name":"Искусственная дорожная неровность по адресу Коломенская улица, дом 5","District":"район Нагатинский Затон","Location":"Коломенская улица, дом 5","Material":"пластик","AdmArea":"Южный административный округ","geoData":{"type":"Point","coordinates":[37.702520398643,55.683177043491]}}},{"Lat":0.0,"Lon":0.0,"Id":"6c95c3d6-92ba-4502-bf65-5a96e6c0a4b3","Number":79,"Cells":{"global_id":1711278,"Name":"Искусственная дорожная неровность по адресу Кленовый бульвар, дом 7","District":"район Нагатинский Затон","Location":"Кленовый бульвар, дом 7","Material":"пластик","AdmArea":"Южный административный округ","geoData":{"type":"Point","coordinates":[37.673892344587,55.683181684019]}}},{"Lat":0.0,"Lon":0.0,"Id":"1979509f-87b0-40f1-a96d-cde9943a0a6f","Number":80,"Cells":{"global_id":1711279,"Name":"Искусственная дорожная неровность по адресу Привольная улица, дом 57, корпус 1","District":"район Выхино-Жулебино","Location":"Привольная улица, дом 57, корпус 1","Material":"пластик","AdmArea":"Юго-Восточный административный округ","geoData":{"type":"Point","coordinates":[37.843043842369,55.683274504068]}}},{"Lat":0.0,"Lon":0.0,"Id":"35019fd1-0e8d-43c6-b1e0-7abac4c063c3","Number":81,"Cells":{"global_id":1711280,"Name":"Искусственная дорожная неровность по адресу улица Гурьянова, дом 35","District":"район Печатники","Location":"улица Гурьянова, дом 35","Material":"пластик","AdmArea":"Юго-Восточный административный округ","geoData":{"type":"Point","coordinates":[37.717419063632,55.683431343871]}}},{"Lat":0.0,"Lon":0.0,"Id":"81fee21d-f2f8-44e6-8d54-9fc0d0d1aa46","Number":82,"Cells":{"global_id":1711281,"Name":"Искусственная дорожная неровность по адресу Большая Очаковская улица, дом 16","District":"район Очаково-Матвеевское","Location":"Большая Очаковская улица, дом 16","Material":"пластик","AdmArea":"Западный административный округ","geoData":{"type":"Point","coordinates":[37.457620806436,55.683618108373]}}},{"Lat":0.0,"Lon":0.0,"Id":"53db4181-3c6a-4612-876e-a65186712b2a","Number":83,"Cells":{"global_id":1711282,"Name":"Искусственная дорожная неровность по адресу 1-я Курьяновская улица, дом 35","District":"район Печатники","Location":"1-я Курьяновская улица, дом 35","Material":"пластик","AdmArea":"Юго-Восточный административный округ","geoData":{"type":"Point","coordinates":[37.701734008054,55.653663704846]}}},{"Lat":0.0,"Lon":0.0,"Id":"ec31a651-f67f-4ac1-af62-ddc2488aaa2e","Number":84,"Cells":{"global_id":1711283,"Name":"Искусственная дорожная неровность по адресу Малая Юшуньская улица, дом 4","District":"район Зюзино","Location":"Малая Юшуньская улица, дом 4","Material":"пластик","AdmArea":"Юго-Западный административный округ","geoData":{"type":"Point","coordinates":[37.59457439463,55.653924355983]}}},{"Lat":0.0,"Lon":0.0,"Id":"263dbd34-8f3a-4de8-ac22-a4b311da4655","Number":85,"Cells":{"global_id":1711284,"Name":"Искусственная дорожная неровность по адресу Перервинский бульвар, дом 25","District":"район Марьино","Location":"Перервинский бульвар, дом 25","Material":"пластик","AdmArea":"Юго-Восточный административный округ","geoData":{"type":"Point","coordinates":[37.773653753131,55.655022021423]}}},{"Lat":0.0,"Lon":0.0,"Id":"0ec8e104-97d5-427e-8050-755d34c23f49","Number":86,"Cells":{"global_id":1711285,"Name":"Искусственная дорожная неровность по адресу Керченская улица, дом 1","District":"район Зюзино","Location":"Керченская улица, дом 1","Material":"пластик","AdmArea":"Юго-Западный административный округ","geoData":{"type":"Point","coordinates":[37.58369250601,55.655846310145]}}},{"Lat":0.0,"Lon":0.0,"Id":"7e81b7e6-a725-424e-82c9-4b5d19bd5bbc","Number":87,"Cells":{"global_id":1711286,"Name":"Искусственная дорожная неровность по адресу Одесская улица, дом 16","District":"район Зюзино","Location":"Одесская улица, дом 16","Material":"пластик","AdmArea":"Юго-Западный административный округ","geoData":{"type":"Point","coordinates":[37.590352431372,55.656136994462]}}},{"Lat":0.0,"Lon":0.0,"Id":"22878672-6433-4b2e-a7aa-dadcf00598c2","Number":88,"Cells":{"global_id":1711287,"Name":"Искусственная дорожная неровность по адресу Новомарьинская улица, дом 15","District":"район Марьино","Location":"Новомарьинская улица, дом 15","Material":"пластик","AdmArea":"Юго-Восточный административный округ","geoData":{"type":"Point","coordinates":[37.766426373683,55.65783091372]}}},{"Lat":0.0,"Lon":0.0,"Id":"c4d913b8-356c-4a8e-8ebc-de688dfcd10b","Number":89,"Cells":{"global_id":1711288,"Name":"Искусственная дорожная неровность по адресу Батюнинская улица, дом 10","District":"район Печатники","Location":"Батюнинская улица, дом 10","Material":"асфальт","AdmArea":"Юго-Восточный административный округ","geoData":{"type":"Point","coordinates":[37.702633386045,55.658371969667]}}},{"Lat":0.0,"Lon":0.0,"Id":"d6904b83-8725-44cf-b755-4f3892abd12a","Number":90,"Cells":{"global_id":1711289,"Name":"Искусственная дорожная неровность по адресу Старокалужское шоссе, дом 64","District":"Обручевский район","Location":"Старокалужское шоссе, дом 64","Material":"пластик","AdmArea":"Юго-Западный административный округ","geoData":{"type":"Point","coordinates":[37.538377758664,55.658418026297]}}},{"Lat":0.0,"Lon":0.0,"Id":"b99cfb16-5521-4482-a073-871de1d7c222","Number":91,"Cells":{"global_id":1711291,"Name":"Искусственная дорожная неровность по адресу Сивашская улица, дом 5","District":"район Зюзино","Location":"Сивашская улица, дом 5","Material":"асфальт","AdmArea":"Юго-Западный административный округ","geoData":{"type":"Point","coordinates":[37.606097668684,55.659603015204]}}},{"Lat":0.0,"Lon":0.0,"Id":"c1f1c442-4f4c-47cb-b9ac-f533c523fa84","Number":92,"Cells":{"global_id":1711293,"Name":"Искусственная дорожная неровность 1 по адресу Старокалужское шоссе, дом 62, строение 5","District":"Обручевский район","Location":"Старокалужское шоссе, дом 62, строение 5","Material":"пластик","AdmArea":"Юго-Западный административный округ","geoData":{"type":"Point","coordinates":[37.535823793514,55.661124990574]}}},{"Lat":0.0,"Lon":0.0,"Id":"e27037f5-731a-4173-95a3-56bfab7b3c50","Number":93,"Cells":{"global_id":1711294,"Name":"Искусственная дорожная неровность по адресу Перекопская улица, дом 21","District":"район Черёмушки","Location":"Перекопская улица, дом 21","Material":"пластик","AdmArea":"Юго-Западный административный округ","geoData":{"type":"Point","coordinates":[37.568716894928,55.661131246124]}}},{"Lat":0.0,"Lon":0.0,"Id":"b1977ac7-533a-423a-9784-88123b3e6694","Number":94,"Cells":{"global_id":1711295,"Name":"Искусственная дорожная неровность 2 по адресу Старокалужское шоссе, дом 62, строение 5","District":"Обручевский район","Location":"Старокалужское шоссе, дом 62, строение 5","Material":"пластик","AdmArea":"Юго-Западный административный округ","geoData":{"type":"Point","coordinates":[37.536244899464,55.66132513474]}}},{"Lat":0.0,"Lon":0.0,"Id":"41781647-3bed-4612-81c1-e1e0e3fcef0d","Number":95,"Cells":{"global_id":1711296,"Name":"Искусственная дорожная неровность по адресу улица Академика Анохина, дом 32","District":"район Тропарёво-Никулино","Location":"улица Академика Анохина, дом 30, корпус 3, строение 2","Material":"пластик","AdmArea":"Западный административный округ","geoData":{"type":"Point","coordinates":[37.466764958038,55.661858844133]}}},{"Lat":0.0,"Lon":0.0,"Id":"b681e5be-410c-43d6-8d12-4285ebd2aedf","Number":96,"Cells":{"global_id":1711297,"Name":"Искусственная дорожная неровность по адресу улица Академика Челомея, дом 6","District":"Обручевский район","Location":"улица Академика Челомея, дом 6","Material":"пластик","AdmArea":"Юго-Западный административный округ","geoData":{"type":"Point","coordinates":[37.533116270349,55.661872775327]}}},{"Lat":0.0,"Lon":0.0,"Id":"d1d24d00-6214-4837-98ca-5035431de958","Number":97,"Cells":{"global_id":1711298,"Name":"Искусственная дорожная неровность по адресу улица 26-ти Бакинских Комиссаров, дом 10, корпус 6","District":"район Тропарёво-Никулино","Location":"улица 26-ти Бакинских Комиссаров, дом 10, корпус 6","Material":"пластик","AdmArea":"Западный административный округ","geoData":{"type":"Point","coordinates":[37.493319329414,55.661913788029]}}},{"Lat":0.0,"Lon":0.0,"Id":"ea058e10-5276-4bd8-8a7e-f256674af9cb","Number":98,"Cells":{"global_id":1711299,"Name":"Искусственная дорожная неровность по адресу улица Академика Миллионщикова, дом 22","District":"район Нагатино-Садовники","Location":"улица Академика Миллионщикова, дом 22","Material":"пластик","AdmArea":"Южный административный округ","geoData":{"type":"Point","coordinates":[37.64523914399,55.663269471337]}}},{"Lat":0.0,"Lon":0.0,"Id":"aaac6f8a-6321-4cba-bdd0-4c5b433e0a65","Number":99,"Cells":{"global_id":1711301,"Name":"Искусственная дорожная неровность по адресу Новочерёмушкинская улица, дом 69","District":"район Черёмушки","Location":"Новочерёмушкинская улица, дом 69","Material":"пластик","AdmArea":"Юго-Западный административный округ","geoData":{"type":"Point","coordinates":[37.561226994515,55.66344998522]}}},{"Lat":0.0,"Lon":0.0,"Id":"aa224445-be7f-40c0-9105-95428ba5ad0b","Number":100,"Cells":{"global_id":1711303,"Name":"Искусственная дорожная неровность по адресу 1-й Дачно-Мещерский проезд, дом 13","District":"район Солнцево","Location":"1-й Дачно-Мещерский проезд, дом 13","Material":"пластик","AdmArea":"Западный административный округ","geoData":{"type":"Point","coordinates":[37.420655104647,55.665886271409]}}}]