[{"Lat":0.0,"Lon":0.0,"Id":"0b352f1d-150d-4ed4-bbca-9c23b844e855","Number":1,"Cells":{"global_id":1711191,"Name":"Искусственная дорожная неровность по адресу Волжский бульвар, дом 12","District":"район Кузьминки","Location":"Волжский бульвар, дом 12","Material":"пластик","AdmArea":"Юго-Восточный административный округ","geoData":{"type":"Point","coordinates":[37.743735559325,55.713832368429]}}},{"Lat":0.0,"Lon":0.0,"Id":"0646d854-326d-406e-a5c7-8919cfaac3aa","Number":2,"Cells":{"global_id":1711192,"Name":"Искусственная дорожная неровность по адресу улица Коминтерна, дом 46","District":"Бабушкинский район","Location":"улица Коминтерна, дом 46","Material":"пластик","AdmArea":"Северо-Восточный административный округ","geoData":{"type":"Point","coordinates":[37.690444097446,55.871294623889]}}},{"Lat":0.0,"Lon":0.0,"Id":"7b9dc241-9cad-4eb4-abff-5203dafb4596","Number":3,"Cells":{"global_id":1711193,"Name":"Искусственная дорожная неровность по адресу 1-я Напрудная улица, дом 15","District":"Лосиноостровский район","Location":"1-я Напрудная улица, дом 15","Material":"пластик","AdmArea":"Северо-Восточный административный округ","geoData":{"type":"Point","coordinates":[37.692688437572,55.879908528886]}}},{"Lat":0.0,"Lon":0.0,"Id":"6aa403ac-e656-4d14-9531-acb456151134","Number":4,"Cells":{"global_id":1711194,"Name":"Искусственная дорожная неровность по адресу 8-я Северная линия, дом 15","District":"район Северный","Location":"8-я Северная линия, дом 15","Material":"пластик","AdmArea":"Северо-Восточный административный округ","geoData":{"type":"Point","coordinates":[37.547759972799,55.936530143951]}}},{"Lat":0.0,"Lon":0.0,"Id":"b994b600-a13c-41d0-939a-f58b3c4c3503","Number":5,"Cells":{"global_id":1711195,"Name":"Искусственная дорожная неровность по адресу 1-я Северная линия, дом 12","District":"район Северный","Location":"1-я Северная линия, дом 12","Material":"пластик","AdmArea":"Северо-Восточный административный округ","geoData":{"type":"Point","coordinates":[37.554870174205,55.94372017059]}}},{"Lat":0.0,"Lon":0.0,"Id":"1b5194f9-ab91-4ceb-9970-8db0928c2b5a","Number":6,"Cells":{"global_id":1711196,"Name":"Искусственная дорожная неровность по адресу Никольский проезд, дом 5","District":"район Савёлки","Location":"Никольский проезд, дом 5","Material":"пластик","AdmArea":"Зеленоградский административный округ","geoData":{"type":"Point","coordinates":[37.247188622161,55.992218276151]}}},{"Lat":0.0,"Lon":0.0,"Id":"69bdcb6e-6973-4d2d-8922-ffadb6ab6e88","Number":7,"Cells":{"global_id":1711197,"Name":"Искусственная дорожная неровность 1 по адресу Часовая улица, дом 19А","District":"район Аэропорт","Location":"Часовая улица, дом 19А","Material":"пластик","AdmArea":"Северный административный округ","geoData":{"type":"Point","coordinates":[37.524822049872,55.809899644443]}}},{"Lat":0.0,"Lon":0.0,"Id":"99fdc44a-87b7-49c2-8e86-243cc72dd99c","Number":8,"Cells":{"global_id":1711198,"Name":"Искусственная дорожная неровность по адресу Типографская улица, дом 5А","District":"район Южное Бутово","Location":"Типографская улица, дом 5А","Material":"пластик","AdmArea":"Юго-Западный административный округ","geoData":{"type":"Point","coordinates":[37.588717920661,55.508692076932]}}},{"Lat":0.0,"Lon":0.0,"Id":"1dd1cb50-5a8b-4907-b3b7-962171c07a64","Number":9,"Cells":{"global_id":1711199,"Name":"Искусственная дорожная неровность по адресу 1-я Мелитопольская улица, дом 8","District":"район Южное Бутово","Location":"1-я Мелитопольская улица, дом 8","Material":"асфальт","AdmArea":"Юго-Западный административный округ","geoData":{"type":"Point","coordinates":[37.578517176911,55.540180095382]}}},{"Lat":0.0,"Lon":0.0,"Id":"70d41dd9-0f72-41e5-a091-02999faac538","Number":10,"Cells":{"global_id":1711200,"Name":"Искусственная дорожная неровность по адресу Джанкойская улица, дом 2, корпус 1","District":"район Южное Бутово","Location":"Джанкойская улица, дом 2, корпус 1","Material":"асфальт","AdmArea":"Юго-Западный административный округ","geoData":{"type":"Point","coordinates":[37.575411347037,55.540435478794]}}},{"Lat":0.0,"Lon":0.0,"Id":"9bdd893a-d3ab-48a6-8939-c67fbbee9696","Number":11,"Cells":{"global_id":1711201,"Name":"Искусственная дорожная неровность по адресу Большая Бутовская улица, дом 9","District":"район Южное Бутово","Location":"Большая Бутовская улица, дом 9","Material":"пластик","AdmArea":"Юго-Западный административный округ","geoData":{"type":"Point","coordinates":[37.580837456119,55.544457914662]}}},{"Lat":0.0,"Lon":0.0,"Id":"15a05980-4637-4bb9-8f5a-7dd9e13878d0","Number":12,"Cells":{"global_id":1711202,"Name":"Искусственная дорожная неровность по адресу улица Адмирала Лазарева, дом 13","District":"район Южное Бутово","Location":"улица Адмирала Лазарева, дом 13","Material":"пластик","AdmArea":"Юго-Западный административный округ","geoData":{"type":"Point","coordinates":[37.538047673611,55.545741905129]}}},{"Lat":0.0,"Lon":0.0,"Id":"1ad104a3-2479-4cf3-88eb-4111e0bf3150","Number":13,"Cells":{"global_id":1711203,"Name":"Искусственная дорожная неровность по адресу улица Академика Глушко, дом 12","District":"район Северное Бутово","Location":"улица Академика Глушко, дом 12","Material":"пластик","AdmArea":"Юго-Западный административный округ","geoData":{"type":"Point","coordinates":[37.565098924731,55.565091426011]}}},{"Lat":0.0,"Lon":0.0,"Id":"020c2400-5680-4928-be75-cd07c821e0f0","Number":14,"Cells":{"global_id":1711204,"Name":"Искусственная дорожная неровность по адресу Куликовская улица, дом 1Б","District":"район Северное Бутово","Location":"Куликовская улица, дом 1Б","Material":"пластик","AdmArea":"Юго-Западный административный округ","geoData":{"type":"Point","coordinates":[37.564397025185,55.571872115728]}}},{"Lat":0.0,"Lon":0.0,"Id":"fa8d68e8-e45c-41f6-841f-a608b485428a","Number":15,"Cells":{"global_id":1711205,"Name":"Искусственная дорожная неровность по адресу Ратная улица, дом 8, корпус 3","District":"район Северное Бутово","Location":"Ратная улица, дом 8, корпус 3","Material":"пластик","AdmArea":"Юго-Западный административный округ","geoData":{"type":"Point","coordinates":[37.58021992365,55.573358073046]}}},{"Lat":0.0,"Lon":0.0,"Id":"a0225b72-4006-4cb1-a6bf-193383d62457","Number":16,"Cells":{"global_id":1711206,"Name":"Искусственная дорожная неровность по адресу Старобитцевская улица, дом 17, корпус 1","District":"район Северное Бутово","Location":"Старобитцевская улица, дом 17, корпус 1","Material":"пластик","AdmArea":"Юго-Западный административный округ","geoData":{"type":"Point","coordinates":[37.582867387252,55.576738787884]}}},{"Lat":0.0,"Lon":0.0,"Id":"9b4993a4-1fc3-4906-ad4e-4dc34cb7b2ce","Number":17,"Cells":{"global_id":1711207,"Name":"Искусственная дорожная неровность по адресу Булатниковский проезд, дом 16","District":"район Бирюлёво Западное","Location":"Булатниковский проезд, дом 16","Material":"пластик","AdmArea":"Южный административный округ","geoData":{"type":"Point","coordinates":[37.659829349968,55.577867969469]}}},{"Lat":0.0,"Lon":0.0,"Id":"5f5c02d9-f1bf-48d1-9d1c-4c8fb8943c63","Number":18,"Cells":{"global_id":1711208,"Name":"Искусственная дорожная неровность по адресу Михневская улица, дом 17","District":"район Бирюлёво Восточное","Location":"Михневская улица, дом 17","Material":"пластик","AdmArea":"Южный административный округ","geoData":{"type":"Point","coordinates":[37.663821482853,55.579398910573]}}},{"Lat":0.0,"Lon":0.0,"Id":"84439e69-5274-4aef-8d25-915103db6c14","Number":19,"Cells":{"global_id":1711209,"Name":"Искусственная дорожная неровность по адресу Булатниковская улица, дом 7","District":"район Бирюлёво Западное","Location":"Булатниковская улица, дом 7","Material":"пластик","AdmArea":"Южный административный округ","geoData":{"type":"Point","coordinates":[37.65166822568,55.580025096355]}}},{"Lat":0.0,"Lon":0.0,"Id":"cd40b950-7ef3-4e16-bd82-d83d49dbd6be","Number":20,"Cells":{"global_id":1711210,"Name":"Искусственная дорожная неровность по адресу Варшавское шоссе, дом 143, корпус 6","District":"район Чертаново Южное","Location":"Варшавское шоссе, дом 143, корпус 6","Material":"пластик","AdmArea":"Южный административный округ","geoData":{"type":"Point","coordinates":[37.598534001315,55.580730373306]}}},{"Lat":0.0,"Lon":0.0,"Id":"bced03de-6509-4e47-87e7-8c511f753f6a","Number":21,"Cells":{"global_id":1711211,"Name":"Искусственная дорожная неровность по адресу улица Мусы Джалиля, дом 16","District":"район Зябликово","Location":"улица Мусы Джалиля, дом 16","Material":"пластик","AdmArea":"Южный административный округ","geoData":{"type":"Point","coordinates":[37.74262294015,55.623992459687]}}},{"Lat":0.0,"Lon":0.0,"Id":"64e3030b-40e1-4cf4-9836-f76f937c8b5c","Number":22,"Cells":{"global_id":1711212,"Name":"Искусственная дорожная неровность по адресу Весёлая улица, дом 12","District":"район Царицыно","Location":"Весёлая улица, дом 12","Material":"пластик","AdmArea":"Южный административный округ","geoData":{"type":"Point","coordinates":[37.663003075409,55.623996915509]}}},{"Lat":0.0,"Lon":0.0,"Id":"deaadfb8-7221-4294-8196-18af3f4a0970","Number":23,"Cells":{"global_id":1711213,"Name":"Искусственная дорожная неровность по адресу Днепропетровская улица, дом 13","District":"район Чертаново Центральное","Location":"Днепропетровская улица, дом 13","Material":"пластик","AdmArea":"Южный административный округ","geoData":{"type":"Point","coordinates":[37.592034843847,55.624013990663]}}},{"Lat":0.0,"Lon":0.0,"Id":"31ce4fca-fb48-4b4a-8c94-140c846dd93f","Number":24,"Cells":{"global_id":1711214,"Name":"Искусственная дорожная неровность по адресу Днепропетровская улица, дом 15","District":"район Чертаново Центральное","Location":"Днепропетровская улица, дом 15","Material":"пластик","AdmArea":"Южный административный округ","geoData":{"type":"Point","coordinates":[37.591015605444,55.624114819385]}}},{"Lat":0.0,"Lon":0.0,"Id":"f783edb6-abbb-474a-8653-5b3a87299471","Number":25,"Cells":{"global_id":1711215,"Name":"Искусственная дорожная неровность по адресу улица Академика Капицы, дом 11","District":"район Ясенево","Location":"улица Академика Капицы, дом 11","Material":"пластик","AdmArea":"Юго-Западный административный округ","geoData":{"type":"Point","coordinates":[37.524317952166,55.625384148998]}}},{"Lat":0.0,"Lon":0.0,"Id":"9303a15e-e617-4380-9eec-e7d0add09d40","Number":26,"Cells":{"global_id":1711216,"Name":"Искусственная дорожная неровность по адресу Борисовский проезд, дом 20","District":"район Орехово-Борисово Северное","Location":"Борисовский проезд, дом 20","Material":"пластик","AdmArea":"Южный административный округ","geoData":{"type":"Point","coordinates":[37.72641066423,55.625670888357]}}},{"Lat":0.0,"Lon":0.0,"Id":"197fad68-2aa3-49ea-9c1b-156eb3d57bdd","Number":27,"Cells":{"global_id":1711217,"Name":"Искусственная дорожная неровность по адресу Булатниковский проезд, дом 14, корпус 3","District":"район Бирюлёво Западное","Location":"Булатниковский проезд, дом 14, корпус 3","Material":"пластик","AdmArea":"Южный административный округ","geoData":{"type":"Point","coordinates":[37.658828887253,55.582830749188]}}},{"Lat":0.0,"Lon":0.0,"Id":"2085b199-36b3-4408-86c8-7926283a9826","Number":28,"Cells":{"global_id":1711218,"Name":"Искусственная дорожная неровность по адресу Медынская улица, дом 12, корпус 1","District":"район Бирюлёво Западное","Location":"Медынская улица, дом 12, корпус 1","Material":"пластик","AdmArea":"Южный административный округ","geoData":{"type":"Point","coordinates":[37.646767327409,55.584569913577]}}},{"Lat":0.0,"Lon":0.0,"Id":"54c1fb70-9ac3-4970-8b78-b71a7fe1384a","Number":29,"Cells":{"global_id":1711219,"Name":"Искусственная дорожная неровность по адресу Бирюлёвская улица, дом 52, корпус 1","District":"район Бирюлёво Восточное","Location":"Бирюлёвская улица, дом 52, корпус 1","Material":"пластик","AdmArea":"Южный административный округ","geoData":{"type":"Point","coordinates":[37.667419498773,55.585107904731]}}},{"Lat":0.0,"Lon":0.0,"Id":"cb31c124-4ce9-402d-9830-b1227f16c9f9","Number":30,"Cells":{"global_id":1711220,"Name":"Искусственная дорожная неровность по адресу Лебедянская улица, дом 14, корпус 1","District":"район Бирюлёво Восточное","Location":"Лебедянская улица, дом 14, корпус 1","Material":"пластик","AdmArea":"Южный административный округ","geoData":{"type":"Point","coordinates":[37.674249910901,55.58657903058]}}},{"Lat":0.0,"Lon":0.0,"Id":"51597f46-f97c-431f-b8ac-6db37d665212","Number":31,"Cells":{"global_id":1711221,"Name":"Искусственная дорожная неровность по адресу Лебедянская улица, дом 12, корпус 1","District":"район Бирюлёво Восточное","Location":"Лебедянская улица, дом 12, корпус 1","Material":"асфальт","AdmArea":"Южный административный округ","geoData":{"type":"Point","coordinates":[37.670929336962,55.586806899903]}}},{"Lat":0.0,"Lon":0.0,"Id":"21c77bed-6262-4af7-af04-a629bc867f1d","Number":32,"Cells":{"global_id":1711222,"Name":"Искусственная дорожная неровность по адресу Медынская улица, дом 7, строение 1","District":"район Бирюлёво Западное","Location":"Медынская улица, дом 7, строение 1","Material":"пластик","AdmArea":"Южный административный округ","geoData":{"type":"Point","coordinates":[37.647996449093,55.587042079599]}}},{"Lat":0.0,"Lon":0.0,"Id":"93e64b78-3f83-4484-8970-2016c48568e2","Number":33,"Cells":{"global_id":1711223,"Name":"Искусственная дорожная неровность по адресу улица Газопровод, дом 11, корпус 1","District":"район Чертаново Южное","Location":"улица Газопровод, дом 11, корпус 1","Material":"пластик","AdmArea":"Южный административный округ","geoData":{"type":"Point","coordinates":[37.610082755184,55.589127304807]}}},{"Lat":0.0,"Lon":0.0,"Id":"a29b6004-f442-4fcf-8032-780ed5f6881e","Number":34,"Cells":{"global_id":1711224,"Name":"Искусственная дорожная неровность по адресу Варшавское шоссе, дом 152, корпус 2","District":"район Чертаново Южное","Location":"Варшавское шоссе, дом 152, корпус 2","Material":"пластик","AdmArea":"Южный административный округ","geoData":{"type":"Point","coordinates":[37.598418500428,55.589310349005]}}},{"Lat":0.0,"Lon":0.0,"Id":"700cdc21-9ef4-400c-9370-6383ed71d2de","Number":35,"Cells":{"global_id":1711225,"Name":"Искусственная дорожная неровность по адресу Ряжская улица, дом 13, корпус 2","District":"район Бирюлёво Восточное","Location":"Ряжская улица, дом 13, корпус 2","Material":"пластик","AdmArea":"Южный административный округ","geoData":{"type":"Point","coordinates":[37.668956907889,55.589956409019]}}},{"Lat":0.0,"Lon":0.0,"Id":"0c159453-e71f-41da-b290-41dcdf7790cf","Number":36,"Cells":{"global_id":1711226,"Name":"Искусственная дорожная неровность по адресу улица Газопровод, дом 11, корпус 2","District":"район Чертаново Южное","Location":"улица Газопровод, дом 11, корпус 2","Material":"пластик","AdmArea":"Южный административный округ","geoData":{"type":"Point","coordinates":[37.607924249084,55.590993404273]}}},{"Lat":0.0,"Lon":0.0,"Id":"b98159dc-5691-4a11-80d5-7ae5abc2e888","Number":37,"Cells":{"global_id":1711227,"Name":"Искусственная дорожная неровность по адресу Педагогическая улица, дом 3","District":"район Бирюлёво Восточное","Location":"Педагогическая улица, дом 3","Material":"пластик","AdmArea":"Южный административный округ","geoData":{"type":"Point","coordinates":[37.66630940027,55.595623898379]}}},{"Lat":0.0,"Lon":0.0,"Id":"eca83f0f-4ccd-41e5-b5c9-17f165aff625","Number":38,"Cells":{"global_id":1711228,"Name":"Искусственная дорожная неровность по адресу улица Академика Янгеля, дом 4, корпус 2","District":"район Чертаново Южное","Location":"улица Академика Янгеля, дом 4, корпус 2","Material":"пластик","AdmArea":"Южный административный округ","geoData":{"type":"Point","coordinates":[37.594181487694,55.595635110204]}}},{"Lat":0.0,"Lon":0.0,"Id":"47edc76a-74d8-4ed8-8e02-6ab35a2e0bf3","Number":39,"Cells":{"global_id":1711229,"Name":"Искусственная дорожная неровность по адресу Кировоградская улица, дом 25, корпус 2","District":"район Чертаново Южное","Location":"Кировоградская улица, дом 25, корпус 2","Material":"пластик","AdmArea":"Южный административный округ","geoData":{"type":"Point","coordinates":[37.596640248492,55.596730108211]}}},{"Lat":0.0,"Lon":0.0,"Id":"c1665800-b7c4-44f7-99e5-b74f4bc0b1aa","Number":40,"Cells":{"global_id":1711230,"Name":"Искусственная дорожная неровность по адресу Дорожная улица, дом 26","District":"район Чертаново Южное","Location":"Дорожная улица, дом 26","Material":"пластик","AdmArea":"Южный административный округ","geoData":{"type":"Point","coordinates":[37.619799058163,55.597167526233]}}},{"Lat":0.0,"Lon":0.0,"Id":"3e74ebcc-fb23-4de0-bfbc-f5a91322068a","Number":41,"Cells":{"global_id":1711231,"Name":"Искусственная дорожная неровность по адресу Вильнюсская улица, дом 12","District":"район Ясенево","Location":"Вильнюсская улица, дом 12","Material":"асфальт","AdmArea":"Юго-Западный административный округ","geoData":{"type":"Point","coordinates":[37.518489007968,55.598518220386]}}},{"Lat":0.0,"Lon":0.0,"Id":"49e8b301-5e11-4183-bf7a-70c378f0f81c","Number":42,"Cells":{"global_id":1711232,"Name":"Искусственная дорожная неровность по адресу Кировоградская улица, дом 23, строение 3","District":"район Чертаново Южное","Location":"Кировоградская улица, дом 23, строение 3","Material":"пластик","AdmArea":"Южный административный округ","geoData":{"type":"Point","coordinates":[37.59755586982,55.598627410871]}}},{"Lat":0.0,"Lon":0.0,"Id":"24eb9a98-077e-45bf-bead-021eb6daf77c","Number":43,"Cells":{"global_id":1711233,"Name":"Искусственная дорожная неровность по адресу Кировоградская улица, дом 42, корпус 1","District":"район Чертаново Южное","Location":"Кировоградская улица, дом 42, корпус 1","Material":"пластик","AdmArea":"Южный административный округ","geoData":{"type":"Point","coordinates":[37.598676954718,55.600929697774]}}},{"Lat":0.0,"Lon":0.0,"Id":"eb34be6a-d99a-4961-a679-ac683cfe25c8","Number":44,"Cells":{"global_id":1711235,"Name":"Искусственная дорожная неровность по адресу Дорожная улица, дом 7","District":"район Чертаново Южное","Location":"Дорожная улица, дом 7","Material":"пластик","AdmArea":"Южный административный округ","geoData":{"type":"Point","coordinates":[37.622842191918,55.603344659446]}}},{"Lat":0.0,"Lon":0.0,"Id":"5eb2ce78-e354-487f-87c0-1d33572ac9c2","Number":45,"Cells":{"global_id":1711236,"Name":"Искусственная дорожная неровность по адресу улица Генерала Белова, дом 55","District":"район Орехово-Борисово Южное","Location":"улица Генерала Белова, дом 55","Material":"пластик","AdmArea":"Южный административный округ","geoData":{"type":"Point","coordinates":[37.725887799819,55.603832663363]}}},{"Lat":0.0,"Lon":0.0,"Id":"98f8325c-9f65-4e50-8730-6cbf13f7dace","Number":46,"Cells":{"global_id":1711238,"Name":"Искусственная дорожная неровность по адресу Воронежская улица, дом 54","District":"район Орехово-Борисово Южное","Location":"Воронежская улица, дом 54","Material":"пластик","AdmArea":"Южный административный округ","geoData":{"type":"Point","coordinates":[37.760831618482,55.611220925912]}}},{"Lat":0.0,"Lon":0.0,"Id":"901615ca-63a5-4c47-83a5-2e5ad87efe2d","Number":47,"Cells":{"global_id":1711239,"Name":"Искусственная дорожная неровность по адресу Воронежская улица, дом 52, корпус 1, строение 3","District":"район Орехово-Борисово Южное","Location":"Воронежская улица, дом 52, корпус 1, строение 3","Material":"пластик","AdmArea":"Южный административный округ","geoData":{"type":"Point","coordinates":[37.758675121913,55.611795373334]}}},{"Lat":0.0,"Lon":0.0,"Id":"dd51330d-86ae-49fc-8a9c-a4df091243cf","Number":48,"Cells":{"global_id":1711244,"Name":"Искусственная дорожная неровность по адресу Ореховый проезд, дом 43А","District":"район Зябликово","Location":"Ореховый проезд, дом 43А","Material":"асфальт","AdmArea":"Южный административный округ","geoData":{"type":"Point","coordinates":[37.729460502112,55.614967536559]}}},{"Lat":0.0,"Lon":0.0,"Id":"b649966c-70f4-4fb5-97b5-c46fdb0cef65","Number":49,"Cells":{"global_id":1711245,"Name":"Искусственная дорожная неровность по адресу Соловьиный проезд, дом 6, корпус 1","District":"район Ясенево","Location":"Соловьиный проезд, дом 6, корпус 1","Material":"пластик","AdmArea":"Юго-Западный административный округ","geoData":{"type":"Point","coordinates":[37.550785990054,55.615632618574]}}},{"Lat":0.0,"Lon":0.0,"Id":"af350600-2d53-4236-b68d-cd9da65f0e95","Number":50,"Cells":{"global_id":1711246,"Name":"Искусственная дорожная неровность по адресу Днепропетровская улица, дом 33","District":"район Чертаново Центральное","Location":"Днепропетровская улица, дом 33","Material":"пластик","AdmArea":"Южный административный округ","geoData":{"type":"Point","coordinates":[37.584337910507,55.616547305178]}}},{"Lat":0.0,"Lon":0.0,"Id":"4fb0fcfc-1262-4795-a444-1564e1adcdad","Number":51,"Cells":{"global_id":1711247,"Name":"Искусственная дорожная неровность по адресу Кировоградская улица, дом 11, строение, 2","District":"район Чертаново Центральное","Location":"Кировоградская улица, дом 11, строение 2","Material":"пластик","AdmArea":"Южный административный округ","geoData":{"type":"Point","coordinates":[37.606569791756,55.616727301441]}}},{"Lat":0.0,"Lon":0.0,"Id":"748b0648-fe42-4344-8e18-7a54a3fe4e4e","Number":52,"Cells":{"global_id":1711248,"Name":"Искусственная дорожная неровность по адресу Ореховый бульвар, дом 63, корпус 1","District":"район Зябликово","Location":"Ореховый бульвар, дом 63, корпус 1","Material":"пластик","AdmArea":"Южный административный округ","geoData":{"type":"Point","coordinates":[37.760447224881,55.617274032298]}}},{"Lat":0.0,"Lon":0.0,"Id":"0020e88a-f40e-41ff-86d3-828a784f940b","Number":53,"Cells":{"global_id":1711250,"Name":"Искусственная дорожная неровность по адресу улица Мусы Джалиля, дом 38, корпус 1","District":"район Зябликово","Location":"улица Мусы Джалиля, дом 38, корпус 1","Material":"пластик","AdmArea":"Южный административный округ","geoData":{"type":"Point","coordinates":[37.743697668386,55.617517756859]}}},{"Lat":0.0,"Lon":0.0,"Id":"d5a6c04f-75d2-4420-b752-2b6e4b2a8825","Number":54,"Cells":{"global_id":1711251,"Name":"Искусственная дорожная неровность по адресу Кустанайская улица, дом 6","District":"район Зябликово","Location":"Кустанайская улица, дом 6","Material":"пластик","AdmArea":"Южный административный округ","geoData":{"type":"Point","coordinates":[37.753393517624,55.61951331916]}}},{"Lat":0.0,"Lon":0.0,"Id":"5dceb1bb-9ce4-4c68-91da-6e63decfcaf4","Number":55,"Cells":{"global_id":1711252,"Name":"Искусственная дорожная неровность по адресу Днепропетровская улица, дом 25А","District":"район Чертаново Центральное","Location":"Днепропетровская улица, дом 25А","Material":"пластик","AdmArea":"Южный административный округ","geoData":{"type":"Point","coordinates":[37.584020404563,55.620246910282]}}},{"Lat":0.0,"Lon":0.0,"Id":"5269dd47-3460-4df7-886b-fdb1c6f56f26","Number":56,"Cells":{"global_id":1711253,"Name":"Искусственная дорожная неровность по адресу Севанская улица, дом 6","District":"район Царицыно","Location":"Севанская улица, дом 6","Material":"пластик","AdmArea":"Южный административный округ","geoData":{"type":"Point","coordinates":[37.662119789838,55.621134644315]}}},{"Lat":0.0,"Lon":0.0,"Id":"d8b09c5b-555d-48b1-b474-9f05cf41f27e","Number":57,"Cells":{"global_id":1711254,"Name":"Искусственная дорожная неровность по адресу Днепропетровская улица, дом 5","District":"район Чертаново Центральное","Location":"Днепропетровская улица, дом 5","Material":"пластик","AdmArea":"Южный административный округ","geoData":{"type":"Point","coordinates":[37.602055911065,55.622503862978]}}},{"Lat":0.0,"Lon":0.0,"Id":"76dfe1b8-8aa8-453c-9610-1c6046ebe447","Number":58,"Cells":{"global_id":1711255,"Name":"Искусственная дорожная неровность по адресу Севанская улица, дом 19","District":"район Царицыно","Location":"Севанская улица, дом 19","Material":"пластик","AdmArea":"Южный административный округ","geoData":{"type":"Point","coordinates":[37.651887667036,55.623946357997]}}},{"Lat":0.0,"Lon":0.0,"Id":"0f2c2938-394f-4cca-8e81-c03a725c6229","Number":59,"Cells":{"global_id":1711256,"Name":"Искусственная дорожная неровность по адресу Армавирская улица, дом 4","District":"район Люблино","Location":"Армавирская улица, дом 4","Material":"пластик","AdmArea":"Юго-Восточный административный округ","geoData":{"type":"Point","coordinates":[37.752453741496,55.675158794641]}}},{"Lat":0.0,"Lon":0.0,"Id":"3c23a4c5-dc11-47ac-8ea9-391474de4603","Number":60,"Cells":{"global_id":1711257,"Name":"Искусственная дорожная неровность по адресу Большая Очаковская улица, дом 42","District":"район Очаково-Матвеевское","Location":"Большая Очаковская улица, дом 42","Material":"пластик","AdmArea":"Западный административный округ","geoData":{"type":"Point","coordinates":[37.446793398842,55.676138959044]}}},{"Lat":0.0,"Lon":0.0,"Id":"1fdaa311-81e4-49c4-b6a8-ad690c01f806","Number":61,"Cells":{"global_id":1711258,"Name":"Искусственная дорожная неровность по адресу улица Гурьянова, дом 75","District":"район Печатники","Location":"улица Гурьянова, дом 75","Material":"пластик","AdmArea":"Юго-Восточный административный округ","geoData":{"type":"Point","coordinates":[37.721511000244,55.676416000246]}}},{"Lat":0.0,"Lon":0.0,"Id":"f4d08998-7d06-464a-aa8d-b9d5ee88b16e","Number":62,"Cells":{"global_id":1711260,"Name":"Искусственная дорожная неровность по адресу улица Вавилова, дом 86","District":"Ломоносовский район","Location":"улица Вавилова, дом 86","Material":"пластик","AdmArea":"Юго-Западный административный округ","geoData":{"type":"Point","coordinates":[37.541476213369,55.676733947002]}}},{"Lat":0.0,"Lon":0.0,"Id":"92982a62-3a10-4daa-8957-e5615086cbd7","Number":63,"Cells":{"global_id":1711261,"Name":"Искусственная дорожная неровность по адресу улица Садовники, дом 4","District":"район Нагатино-Садовники","Location":"улица Садовники, дом 4","Material":"пластик","AdmArea":"Южный административный округ","geoData":{"type":"Point","coordinates":[37.650174408211,55.677870184405]}}},{"Lat":0.0,"Lon":0.0,"Id":"814b96f8-0c27-4a58-ba7f-930e64fefb7b","Number":64,"Cells":{"global_id":1711262,"Name":"Искусственная дорожная неровность по адресу Озёрная улица, дом 18","District":"район Очаково-Матвеевское","Location":"Озёрная улица, дом 18","Material":"пластик","AdmArea":"Западный административный округ","geoData":{"type":"Point","coordinates":[37.455894,55.678986]}}},{"Lat":0.0,"Lon":0.0,"Id":"0acc9a95-211c-4fb9-9463-fde4283398af","Number":65,"Cells":{"global_id":1711263,"Name":"Искусственная дорожная неровность по адресу Нагорная улица, дом 21, корпус 1","District":"район Котловка","Location":"Нагорная улица, дом 21, корпус 1","Material":"пластик","AdmArea":"Юго-Западный административный округ","geoData":{"type":"Point","coordinates":[37.603126954412,55.678470826968]}}},{"Lat":0.0,"Lon":0.0,"Id":"b60bd2c1-71a9-40d1-9872-340c72d8e47a","Number":66,"Cells":{"global_id":1711264,"Name":"Искусственная дорожная неровность по адресу улица Авиаконструктора Миля, дом 19","District":"район Выхино-Жулебино","Location":"улица Авиаконструктора Миля, дом 19","Material":"пластик","AdmArea":"Юго-Восточный административный округ","geoData":{"type":"Point","coordinates":[37.858050999589,55.679394999934]}}},{"Lat":0.0,"Lon":0.0,"Id":"044b6380-adb4-4480-87d5-9f420cdeaaca","Number":67,"Cells":{"global_id":1711265,"Name":"Искусственная дорожная неровность по адресу Высокая улица, дом 6","District":"район Нагатино-Садовники","Location":"Высокая улица, дом 6","Material":"пластик","AdmArea":"Южный административный округ","geoData":{"type":"Point","coordinates":[37.6544064326,55.679549138995]}}},{"Lat":0.0,"Lon":0.0,"Id":"3b3e94f6-05e1-4e11-9de4-6e92ef22c075","Number":68,"Cells":{"global_id":1711266,"Name":"Искусственная дорожная неровность по адресу Коломенская набережная, дом 10","District":"район Нагатинский Затон","Location":"Коломенская набережная, дом 10","Material":"пластик","AdmArea":"Южный административный округ","geoData":{"type":"Point","coordinates":[37.706350594029,55.679564200453]}}},{"Lat":0.0,"Lon":0.0,"Id":"53a3d5c0-64be-4430-8b76-37360d171d18","Number":69,"Cells":{"global_id":1711267,"Name":"Искусственная дорожная неровность по адресу улица Полбина, дом 42, строение 2","District":"район Печатники","Location":"улица Полбина, дом 42, строение 2","Material":"асфальт","AdmArea":"Юго-Восточный административный округ","geoData":{"type":"Point","coordinates":[37.727902143384,55.679818807956]}}},{"Lat":0.0,"Lon":0.0,"Id":"541993d7-7221-4e50-9001-289cc9b08296","Number":70,"Cells":{"global_id":1711268,"Name":"Искусственная дорожная неровность по адресу улица Гурьянова, дом 55","District":"район Печатники","Location":"улица Гурьянова, дом 55","Material":"пластик","AdmArea":"Юго-Восточный административный округ","geoData":{"type":"Point","coordinates":[37.71650560365,55.680051817905]}}},{"Lat":0.0,"Lon":0.0,"Id":"5ac44738-0dcd-4cf7-8450-4bb4f986dc18","Number":71,"Cells":{"global_id":1711269,"Name":"Искусственная дорожная неровность по адресу Затонная улица, дом 7","District":"район Нагатинский Затон","Location":"Затонная улица, дом 7","Material":"пластик","AdmArea":"Южный административный округ","geoData":{"type":"Point","coordinates":[37.683912070621,55.680100218346]}}},{"Lat":0.0,"Lon":0.0,"Id":"618dbd8b-8164-4722-947a-3f60e271dce3","Number":72,"Cells":{"global_id":1711270,"Name":"Искусственная дорожная неровность по адресу Коломенская набережная, дом 8","District":"район Нагатинский Затон","Location":"Коломенская набережная, дом 8","Material":"пластик","AdmArea":"Южный административный округ","geoData":{"type":"Point","coordinates":[37.707224994364,55.680234056433]}}},{"Lat":0.0,"Lon":0.0,"Id":"f3fb5483-59e8-44e9-8527-32e5e42b7a36","Number":73,"Cells":{"global_id":1711271,"Name":"Искусственная дорожная неровность по адресу Нагорная улица, дом 11","District":"район Котловка","Location":"Нагорная улица, дом 11","Material":"пластик","AdmArea":"Юго-Западный административный округ","geoData":{"type":"Point","coordinates":[37.607980411755,55.680570873327]}}},{"Lat":0.0,"Lon":0.0,"Id":"f0973a33-46cd-4624-9591-87281c29c1a2","Number":74,"Cells":{"global_id":1711272,"Name":"Искусственная дорожная неровность по адресу улица Авиаконструктора Миля, дом 15, корпус 1","District":"район Выхино-Жулебино","Location":"улица Авиаконструктора Миля, дом 15, корпус 1","Material":"пластик","AdmArea":"Юго-Восточный административный округ","geoData":{"type":"Point","coordinates":[37.857110517385,55.680697420629]}}},{"Lat":0.0,"Lon":0.0,"Id":"2db159f9-fbdb-4e2f-a6e5-1edbbab75914","Number":75,"Cells":{"global_id":1711273,"Name":"Искусственная дорожная неровность по адресу улица Маршала Полубоярова, дом 22","District":"район Выхино-Жулебино","Location":"улица Маршала Полубоярова, дом 22","Material":"пластик","AdmArea":"Юго-Восточный административный округ","geoData":{"type":"Point","coordinates":[37.861542366619,55.682202168605]}}},{"Lat":0.0,"Lon":0.0,"Id":"68085719-0663-4f20-a0a2-9646c328756a","Number":76,"Cells":{"global_id":1711274,"Name":"Искусственная дорожная неровность по адресу Коломенская улица, дом 7, строение 2","District":"район Нагатинский Затон","Location":"Коломенская улица, дом 7, строение 2","Material":"пластик","AdmArea":"Южный административный округ","geoData":{"type":"Point","coordinates":[37.701726465799,55.68234054238]}}},{"Lat":0.0,"Lon":0.0,"Id":"8ba2f6e1-6dec-4593-b7f7-b641b701c661","Number":77,"Cells":{"global_id":1711276,"Name":"Искусственная дорожная неровность по адресу улица Маршала Полубоярова, дом 20","District":"район Выхино-Жулебино","Location":"улица Маршала Полубоярова, дом 20","Material":"пластик","AdmArea":"Юго-Восточный административный округ","geoData":{"type":"Point","coordinates":[37.861931926432,55.682843072478]}}},{"Lat":0.0,"Lon":0.0,"Id":"bddce987-2614-471f-a545-5336c193a13e","Number":78,"Cells":{"global_id":1711277,"Name":"Искусственная дорожная неровность по адресу Коломенская улица, дом 5","District":"район Нагатинский Затон","Location":"Коломенская улица, дом 5","Material":"пластик","AdmArea":"Южный административный округ","geoData":{"type":"Point","coordinates":[37.702520398643,55.683177043491]}}},{"Lat":0.0,"Lon":0.0,"Id":"e16ad9b3-2313-4884-ba6a-8c2eeed8f9ee","Number":79,"Cells":{"global_id":1711278,"Name":"Искусственная дорожная неровность по адресу Кленовый бульвар, дом 7","District":"район Нагатинский Затон","Location":"Кленовый бульвар, дом 7","Material":"пластик","AdmArea":"Южный административный округ","geoData":{"type":"Point","coordinates":[37.673892344587,55.683181684019]}}},{"Lat":0.0,"Lon":0.0,"Id":"f591af3f-79aa-4420-afb4-745b2303def4","Number":80,"Cells":{"global_id":1711279,"Name":"Искусственная дорожная неровность по адресу Привольная улица, дом 57, корпус 1","District":"район Выхино-Жулебино","Location":"Привольная улица, дом 57, корпус 1","Material":"пластик","AdmArea":"Юго-Восточный административный округ","geoData":{"type":"Point","coordinates":[37.843043842369,55.683274504068]}}},{"Lat":0.0,"Lon":0.0,"Id":"11f208dd-9de1-4209-997f-fcb51ebd0bdf","Number":81,"Cells":{"global_id":1711280,"Name":"Искусственная дорожная неровность по адресу улица Гурьянова, дом 35","District":"район Печатники","Location":"улица Гурьянова, дом 35","Material":"пластик","AdmArea":"Юго-Восточный административный округ","geoData":{"type":"Point","coordinates":[37.717419063632,55.683431343871]}}},{"Lat":0.0,"Lon":0.0,"Id":"63e9e3fe-98ef-4251-822e-7b52735fa190","Number":82,"Cells":{"global_id":1711281,"Name":"Искусственная дорожная неровность по адресу Большая Очаковская улица, дом 16","District":"район Очаково-Матвеевское","Location":"Большая Очаковская улица, дом 16","Material":"пластик","AdmArea":"Западный административный округ","geoData":{"type":"Point","coordinates":[37.457620806436,55.683618108373]}}},{"Lat":0.0,"Lon":0.0,"Id":"093aa1af-d992-488f-825a-ceeffc59aa3a","Number":83,"Cells":{"global_id":1711282,"Name":"Искусственная дорожная неровность по адресу 1-я Курьяновская улица, дом 35","District":"район Печатники","Location":"1-я Курьяновская улица, дом 35","Material":"пластик","AdmArea":"Юго-Восточный административный округ","geoData":{"type":"Point","coordinates":[37.701734008054,55.653663704846]}}},{"Lat":0.0,"Lon":0.0,"Id":"31d602a2-ae61-48c4-9e4d-bf1a8dfd0152","Number":84,"Cells":{"global_id":1711283,"Name":"Искусственная дорожная неровность по адресу Малая Юшуньская улица, дом 4","District":"район Зюзино","Location":"Малая Юшуньская улица, дом 4","Material":"пластик","AdmArea":"Юго-Западный административный округ","geoData":{"type":"Point","coordinates":[37.59457439463,55.653924355983]}}},{"Lat":0.0,"Lon":0.0,"Id":"998c06bd-ebd3-44a1-a404-560e31c4b5bc","Number":85,"Cells":{"global_id":1711284,"Name":"Искусственная дорожная неровность по адресу Перервинский бульвар, дом 25","District":"район Марьино","Location":"Перервинский бульвар, дом 25","Material":"пластик","AdmArea":"Юго-Восточный административный округ","geoData":{"type":"Point","coordinates":[37.773653753131,55.655022021423]}}},{"Lat":0.0,"Lon":0.0,"Id":"0a321f3c-a96c-4e3d-99ae-f851b62f1488","Number":86,"Cells":{"global_id":1711285,"Name":"Искусственная дорожная неровность по адресу Керченская улица, дом 1","District":"район Зюзино","Location":"Керченская улица, дом 1","Material":"пластик","AdmArea":"Юго-Западный административный округ","geoData":{"type":"Point","coordinates":[37.58369250601,55.655846310145]}}},{"Lat":0.0,"Lon":0.0,"Id":"1042b51e-e7f9-4f57-ba34-c6471e6f543e","Number":87,"Cells":{"global_id":1711286,"Name":"Искусственная дорожная неровность по адресу Одесская улица, дом 16","District":"район Зюзино","Location":"Одесская улица, дом 16","Material":"пластик","AdmArea":"Юго-Западный административный округ","geoData":{"type":"Point","coordinates":[37.590352431372,55.656136994462]}}},{"Lat":0.0,"Lon":0.0,"Id":"27bbcfad-40c3-4f97-bf91-447dc7a162e0","Number":88,"Cells":{"global_id":1711287,"Name":"Искусственная дорожная неровность по адресу Новомарьинская улица, дом 15","District":"район Марьино","Location":"Новомарьинская улица, дом 15","Material":"пластик","AdmArea":"Юго-Восточный административный округ","geoData":{"type":"Point","coordinates":[37.766426373683,55.65783091372]}}},{"Lat":0.0,"Lon":0.0,"Id":"083e0af5-3a1e-4a64-a0c0-19ebfb909a11","Number":89,"Cells":{"global_id":1711288,"Name":"Искусственная дорожная неровность по адресу Батюнинская улица, дом 10","District":"район Печатники","Location":"Батюнинская улица, дом 10","Material":"асфальт","AdmArea":"Юго-Восточный административный округ","geoData":{"type":"Point","coordinates":[37.702633386045,55.658371969667]}}},{"Lat":0.0,"Lon":0.0,"Id":"86d24028-4c20-476d-a744-19498ed43bfb","Number":90,"Cells":{"global_id":1711289,"Name":"Искусственная дорожная неровность по адресу Старокалужское шоссе, дом 64","District":"Обручевский район","Location":"Старокалужское шоссе, дом 64","Material":"пластик","AdmArea":"Юго-Западный административный округ","geoData":{"type":"Point","coordinates":[37.538377758664,55.658418026297]}}},{"Lat":0.0,"Lon":0.0,"Id":"65c4afcc-34d0-4cf7-a511-5664ada00446","Number":91,"Cells":{"global_id":1711291,"Name":"Искусственная дорожная неровность по адресу Сивашская улица, дом 5","District":"район Зюзино","Location":"Сивашская улица, дом 5","Material":"асфальт","AdmArea":"Юго-Западный административный округ","geoData":{"type":"Point","coordinates":[37.606097668684,55.659603015204]}}},{"Lat":0.0,"Lon":0.0,"Id":"3e280b3d-e4b6-4ef6-babc-956c608adcc6","Number":92,"Cells":{"global_id":1711293,"Name":"Искусственная дорожная неровность 1 по адресу Старокалужское шоссе, дом 62, строение 5","District":"Обручевский район","Location":"Старокалужское шоссе, дом 62, строение 5","Material":"пластик","AdmArea":"Юго-Западный административный округ","geoData":{"type":"Point","coordinates":[37.535823793514,55.661124990574]}}},{"Lat":0.0,"Lon":0.0,"Id":"99559fee-804a-4c58-9793-ae26e36064bc","Number":93,"Cells":{"global_id":1711294,"Name":"Искусственная дорожная неровность по адресу Перекопская улица, дом 21","District":"район Черёмушки","Location":"Перекопская улица, дом 21","Material":"пластик","AdmArea":"Юго-Западный административный округ","geoData":{"type":"Point","coordinates":[37.568716894928,55.661131246124]}}},{"Lat":0.0,"Lon":0.0,"Id":"05c73fe7-2c9b-47d3-9d2a-9f362ea89a16","Number":94,"Cells":{"global_id":1711295,"Name":"Искусственная дорожная неровность 2 по адресу Старокалужское шоссе, дом 62, строение 5","District":"Обручевский район","Location":"Старокалужское шоссе, дом 62, строение 5","Material":"пластик","AdmArea":"Юго-Западный административный округ","geoData":{"type":"Point","coordinates":[37.536244899464,55.66132513474]}}},{"Lat":0.0,"Lon":0.0,"Id":"da8b15ef-2a21-4916-b833-d6de425ed8ea","Number":95,"Cells":{"global_id":1711296,"Name":"Искусственная дорожная неровность по адресу улица Академика Анохина, дом 32","District":"район Тропарёво-Никулино","Location":"улица Академика Анохина, дом 30, корпус 3, строение 2","Material":"пластик","AdmArea":"Западный административный округ","geoData":{"type":"Point","coordinates":[37.466764958038,55.661858844133]}}},{"Lat":0.0,"Lon":0.0,"Id":"55ca0643-e463-49d1-b936-9bd0f714382d","Number":96,"Cells":{"global_id":1711297,"Name":"Искусственная дорожная неровность по адресу улица Академика Челомея, дом 6","District":"Обручевский район","Location":"улица Академика Челомея, дом 6","Material":"пластик","AdmArea":"Юго-Западный административный округ","geoData":{"type":"Point","coordinates":[37.533116270349,55.661872775327]}}},{"Lat":0.0,"Lon":0.0,"Id":"f9767013-08d4-4511-b44b-708904a22365","Number":97,"Cells":{"global_id":1711298,"Name":"Искусственная дорожная неровность по адресу улица 26-ти Бакинских Комиссаров, дом 10, корпус 6","District":"район Тропарёво-Никулино","Location":"улица 26-ти Бакинских Комиссаров, дом 10, корпус 6","Material":"пластик","AdmArea":"Западный административный округ","geoData":{"type":"Point","coordinates":[37.493319329414,55.661913788029]}}},{"Lat":0.0,"Lon":0.0,"Id":"8e78425f-ac48-4631-b9df-7d70f0d4280f","Number":98,"Cells":{"global_id":1711299,"Name":"Искусственная дорожная неровность по адресу улица Академика Миллионщикова, дом 22","District":"район Нагатино-Садовники","Location":"улица Академика Миллионщикова, дом 22","Material":"пластик","AdmArea":"Южный административный округ","geoData":{"type":"Point","coordinates":[37.64523914399,55.663269471337]}}},{"Lat":0.0,"Lon":0.0,"Id":"f12e783c-0745-4e36-a11f-da3fc282bf8b","Number":99,"Cells":{"global_id":1711301,"Name":"Искусственная дорожная неровность по адресу Новочерёмушкинская улица, дом 69","District":"район Черёмушки","Location":"Новочерёмушкинская улица, дом 69","Material":"пластик","AdmArea":"Юго-Западный административный округ","geoData":{"type":"Point","coordinates":[37.561226994515,55.66344998522]}}},{"Lat":0.0,"Lon":0.0,"Id":"3fc47caf-1f39-4668-96aa-ab75317b74f3","Number":100,"Cells":{"global_id":1711303,"Name":"Искусственная дорожная неровность по адресу 1-й Дачно-Мещерский проезд, дом 13","District":"район Солнцево","Location":"1-й Дачно-Мещерский проезд, дом 13","Material":"пластик","AdmArea":"Западный административный округ","geoData":{"type":"Point","coordinates":[37.420655104647,55.665886271409]}}}]