[{"global_id":1712308,"Number":1,"Cells":{"global_id":1712308,"FullName":"Открытое акционерное общество «Экспериментальное научно-производственное объединение «Санта и РО»","ShortName":"ОАО «ЭНПО «Санта и Ро»","AdmArea":"Западный административный округ","District":"район Тропарёво-Никулино","Address":"Озерная улица, дом 47 \"Д\"","ContactPhone":[{"ContactPhone":"(925) 642-51-58"}],"Fax":[],"WebSite":null,"geoData":{"type":"Point","coordinates":[37.44259891481,55.661549864225]}}},{"global_id":1712309,"Number":2,"Cells":{"global_id":1712309,"FullName":"Открытое акционерное общество «Броникс-Сервис»","ShortName":"ОАО «Броникс-Сервис»","AdmArea":"Юго-Западный административный округ","District":"район Ясенево","Address":"Литовский бульвар, дом 1А","ContactPhone":[{"ContactPhone":"(495) 649-64-94"}],"Fax":[{"Fax":"(495) 427-98-70"}],"WebSite":"www.broniks.ru","geoData":{"type":"Point","coordinates":[37.52800122364,55.614701263581]}}},{"global_id":1712310,"Number":3,"Cells":{"global_id":1712310,"FullName":"Открытое акционерное общество «Ритуал-Юго-Запад»","ShortName":"ОАО «Ритуал-Юго-Запад»","AdmArea":"Юго-Западный административный округ","District":"район Ясенево","Address":"Новоясеневский просп., дом 25/20","ContactPhone":[{"ContactPhone":"(495) 426-93-00"},{"ContactPhone":"(916) 943-18-86"}],"Fax":[],"WebSite":"www.ritual-uz.ru","geoData":{"type":"Point","coordinates":[37.55537806485,55.60251731362]}}},{"global_id":1712311,"Number":4,"Cells":{"global_id":1712311,"FullName":"Закрытое акционерное общество «Ритуал-Сервис»","ShortName":"ЗАО «Ритуал-Сервис»","AdmArea":"Северо-Восточный административный округ","District":"Алексеевский район","Address":"129301, г. Москва, ул. Касаткина д. 11 стр. 2","ContactPhone":[{"ContactPhone":"(495) 100-01-00"},{"ContactPhone":"(495) 310-76-10"}],"Fax":[],"WebSite":"www.ritual.ru","geoData":{"type":"Point","coordinates":[37.659397265169,55.827291653043]}}},{"global_id":1712312,"Number":5,"Cells":{"global_id":1712312,"FullName":"Открытое акционерное общество «Ритуал-Горбрус»","ShortName":"ОАО «Ритуал-Горбрус»","AdmArea":"Восточный административный округ","District":"район Вешняки","Address":"Большая Косинская ул.,  д. 27, корп. 6, пом. 656","ContactPhone":[{"ContactPhone":"(495) 407-08-07"}],"Fax":[{"Fax":"(495) 308-04-44"}],"WebSite":"www.ritual-gorbrus.ru","geoData":{"type":"Point","coordinates":[37.857085657361,55.718084620659]}}},{"global_id":1712313,"Number":6,"Cells":{"global_id":1712313,"FullName":"Открытое акционерное общество «Реквием-Сервис»","ShortName":"ОАО «Реквием-Сервис»","AdmArea":"Центральный административный округ","District":"район Хамовники","Address":"Лужнецкая наб., дом 10 А","ContactPhone":[{"ContactPhone":"(495) 637-05-05"},{"ContactPhone":"(495) 637-04-04"},{"ContactPhone":"(499) 245-60-65"}],"Fax":[{"Fax":"(499) 245-60-65"}],"WebSite":"www.rekviem.msk.ru","geoData":{"type":"Point","coordinates":[37.569313511868,55.716304795995]}}},{"global_id":1712314,"Number":7,"Cells":{"global_id":1712314,"FullName":"Акционерное общество «Военно-Мемориальная Компания-1»","ShortName":"АО «ВМК-1»","AdmArea":"Центральный административный округ","District":"район Замоскворечье","Address":"Летниковская улица, дом 10, строение 1","ContactPhone":[{"ContactPhone":"(800) 200-07-10"},{"ContactPhone":"(985) 180-85-55"}],"Fax":[{"Fax":"(495) 785-24-20"}],"WebSite":"www.wmkros.ru","geoData":{"type":"Point","coordinates":[37.643967260765,55.724795442918]}}},{"global_id":1712315,"Number":8,"Cells":{"global_id":1712315,"FullName":"Акционерное общество «Генезис-Сервис»","ShortName":"АО «Генезис-Сервис»","AdmArea":"Юго-Западный административный округ","District":"район Котловка","Address":"Нагорная улица, дом 23, корп. 1","ContactPhone":[{"ContactPhone":"(925) 502-67-83"}],"Fax":[],"WebSite":"www.genesisritual.ru","geoData":{"type":"Point","coordinates":[37.59329981548,55.714585748691]}}},{"global_id":1712317,"Number":9,"Cells":{"global_id":1712317,"FullName":"Общество с ограниченной ответственностью «Последний обряд»","ShortName":"ООО «Последний обряд»","AdmArea":"Северо-Западный административный округ","District":"район Щукино","Address":"ул. Гамалеи, дом 17А","ContactPhone":[{"ContactPhone":"(499) 196-83-82"},{"ContactPhone":"(499) 196-49-51"}],"Fax":[],"WebSite":"www.obriad.ru","geoData":{"type":"Point","coordinates":[37.456304196123,55.799279981828]}}},{"global_id":1712318,"Number":10,"Cells":{"global_id":1712318,"FullName":"Государственное бюджетное учреждение «Ритуал»","ShortName":"ГБУ «Ритуал»","AdmArea":"Северный административный округ","District":"район Сокол","Address":"Песчаная ул., дом 3","ContactPhone":[{"ContactPhone":"(499) 157-43-83"},{"ContactPhone":"(499) 610-00-00"}],"Fax":[{"Fax":"(499) 157-43-83"}],"WebSite":"www.mosritual.ru","geoData":{"type":"Point","coordinates":[37.516419961912,55.803008328284]}}},{"global_id":1712320,"Number":11,"Cells":{"global_id":1712320,"FullName":"Открытое акционерное общество «Ритус-Сервис»","ShortName":"ОАО «Ритус-Сервис»","AdmArea":"Восточный административный округ","District":"район Новокосино","Address":"Суздальская ул., дом 38 корп. 2","ContactPhone":[{"ContactPhone":"(495) 701-25-94"}],"Fax":[{"Fax":"(495) 701-25-94"}],"WebSite":"www.ritus.ru","geoData":{"type":"Point","coordinates":[37.872687203267,55.745469982807]}}},{"global_id":1712321,"Number":12,"Cells":{"global_id":1712321,"FullName":"Некоммерческая организация Фонд Возрождения Ритуальных Традиций","ShortName":"НО ФВРТ","AdmArea":"Центральный административный округ","District":"Мещанский район","Address":"просп. Мира, дом 14 стр. 6","ContactPhone":[{"ContactPhone":"(495) 684-79-65"},{"ContactPhone":"(495) 684-35-55"}],"Fax":[{"Fax":"(495) 684-35-55"}],"WebSite":null,"geoData":{"type":"Point","coordinates":[37.633277892192,55.775210141195]}}},{"global_id":1712322,"Number":13,"Cells":{"global_id":1712322,"FullName":"Общество с ограниченной ответственностью «ЮОО ВОИ Вектор»","ShortName":"ООО «ЮОО ВОИ Вектор»","AdmArea":"Южный административный округ","District":"район Чертаново Центральное","Address":"Днепропетровская улица. дом 18А","ContactPhone":[{"ContactPhone":"(495) 313-41-10"},{"ContactPhone":"(985) 644-61-65"}],"Fax":[{"Fax":"(495) 313-41-10"}],"WebSite":"www.ritual-vektor.ru","geoData":{"type":"Point","coordinates":[37.586379503711,55.615063141329]}}},{"global_id":1712323,"Number":14,"Cells":{"global_id":1712323,"FullName":"Акционерное общество «Анубис-Сервис»","ShortName":"АО «Анубис-Сервис»","AdmArea":"Северо-Западный административный округ","District":"район Северное Тушино","Address":"ул. Свободы, д. 99, корп. 1, пом. XIII., ком. 1","ContactPhone":[{"ContactPhone":"(495) 778-39-49"}],"Fax":[],"WebSite":null,"geoData":{"type":"Point","coordinates":[37.441439929942,55.870973959382]}}},{"global_id":1712324,"Number":15,"Cells":{"global_id":1712324,"FullName":"Открытое акционерное общество «Ритуальная православная служба»","ShortName":"ОАО «Ритуальная православная служба»","AdmArea":"Юго-Западный административный округ","District":"район Черёмушки","Address":"улица Цюрупы. дом 3","ContactPhone":[{"ContactPhone":"(495) 632-00-02"}],"Fax":[{"Fax":"(495) 632-00-02"}],"WebSite":"www.rps-ritual.ru","geoData":{"type":"Point","coordinates":[37.577198126923,55.668555037927]}}},{"global_id":1712325,"Number":16,"Cells":{"global_id":1712325,"FullName":"Открытое акционерное общество «Стикс-С»","ShortName":"ОАО «Стикс-С»","AdmArea":"Южный административный округ","District":"Даниловский район","Address":"Дербеневская ул., дом 24 стр. 1","ContactPhone":[{"ContactPhone":"(499) 235-99-13"}],"Fax":[],"WebSite":"www.stiks-s.ru","geoData":{"type":"Point","coordinates":[37.646849584638,55.718537515779]}}},{"global_id":1712326,"Number":17,"Cells":{"global_id":1712326,"FullName":"Открытое акционерное общество «Риторг-Сервис»","ShortName":"ОАО «Риторг-Сервис»","AdmArea":"Западный административный округ","District":"район Кунцево","Address":"ул. Маршала Тимошенко, дом 25","ContactPhone":[{"ContactPhone":"(499) 149-99-70"},{"ContactPhone":"(495) 530-00-01"}],"Fax":[{"Fax":"(495) 415-01-54"}],"WebSite":"www.ritorg.ru","geoData":{"type":"Point","coordinates":[37.401413201033,55.751256668094]}}},{"global_id":1712327,"Number":18,"Cells":{"global_id":1712327,"FullName":"Открытое акционерное общество «Эдем-С»","ShortName":"ОАО «Эдем-С»","AdmArea":"Восточный административный округ","District":"район Соколиная Гора","Address":"просп. Будённого, дом 51А","ContactPhone":[{"ContactPhone":"(495) 673-47-44"}],"Fax":[],"WebSite":"www.oaoedems.ru","geoData":{"type":"Point","coordinates":[37.738065722233,55.760052101089]}}},{"global_id":1712328,"Number":19,"Cells":{"global_id":1712328,"FullName":"Акционерное общество «Фирма «Кедр»","ShortName":"АО «Фирма «Кедр»","AdmArea":"Центральный административный округ","District":"Мещанский район","Address":"проспект Мира, дом 19, строение 1","ContactPhone":[{"ContactPhone":"(499) 250-10-78"},{"ContactPhone":"(499) 973-47-06"}],"Fax":[],"WebSite":"www.ritual-kedr.ru","geoData":{"type":"Point","coordinates":[37.632110836015,55.778117430459]}}}]