[
  {
    "global_id": 1699129,
    "Number": 1,
    "Cells": {
      "global_id": 1699129,
      "DepartmentalAffiliation":
        "Департамент жилищно-коммунального хозяйства города Москвы",
      "ClarificationOfWorkingHours":
        "Посещение (по согласованию с управляющим): ежедневно 12:00-16:00 кроме понедельника(санитарный день);  для желающих взять животное ежедневно 08:00-17:00",
      "AdmArea": "Восточный административный округ",
      "District": "район Вешняки",
      "Address": "Рассветная аллея, дом 10",
      "Phone": [{ "Phone": "(909) 918-59-23" }],
      "ChiefName": "Плетнева Ирина Александровна",
      "WorkingHours": [
        { "Hours": "08:00-17:00", "DayOfWeek": "понедельник" },
        { "Hours": "08:00-17:00", "DayOfWeek": "вторник" },
        { "Hours": "08:00-17:00", "DayOfWeek": "среда" },
        { "Hours": "08:00-17:00", "DayOfWeek": "четверг" },
        { "Hours": "08:00-17:00", "DayOfWeek": "пятница" },
        { "Hours": "08:00-17:00", "DayOfWeek": "суббота" },
        { "Hours": "08:00-17:00", "DayOfWeek": "воскресенье" }
      ],
      "Name": "Приют для бродячих животных № 1",
      "geoData": {
        "type": "Point",
        "coordinates": [37.798264578327, 55.739763974496]
      }
    }
  },
  {
    "global_id": 1699130,
    "Number": 2,
    "Cells": {
      "global_id": 1699130,
      "DepartmentalAffiliation":
        "Департамент жилищно-коммунального хозяйства города Москвы",
      "ClarificationOfWorkingHours":
        "Посещение (по согласованию с управляющим): ежедневно 12:00-16:00 кроме понедельника (санитарный день);   для желающих взять животное ежедневно 08:00-17:00",
      "AdmArea": "Зеленоградский административный округ",
      "District": "район Савёлки",
      "Address": "Проезд N 5500, дом 15, строение 1",
      "Phone": [{ "Phone": "(909) 918-59-23" }],
      "ChiefName": "Игнатов Алексей Васильевич",
      "WorkingHours": [
        { "Hours": "08:00-17:00", "DayOfWeek": "понедельник" },
        { "Hours": "08:00-17:00", "DayOfWeek": "вторник" },
        { "Hours": "08:00-17:00", "DayOfWeek": "среда" },
        { "Hours": "08:00-17:00", "DayOfWeek": "четверг" },
        { "Hours": "08:00-17:00", "DayOfWeek": "пятница" },
        { "Hours": "08:00-17:00", "DayOfWeek": "суббота" },
        { "Hours": "08:00-17:00", "DayOfWeek": "воскресенье" }
      ],
      "Name": "Приют для бродячих животных № 4",
      "geoData": {
        "type": "Point",
        "coordinates": [37.267422240175, 55.979218675112]
      }
    }
  },
  {
    "global_id": 61896897,
    "Number": 3,
    "Cells": {
      "global_id": 61896897,
      "DepartmentalAffiliation":
        "Префектура Западного административного округа города Москвы",
      "ClarificationOfWorkingHours": null,
      "AdmArea": "Западный административный округ",
      "District": "район Солнцево",
      "Address": "Родниковая улица, дом 22, строение 1",
      "Phone": [{ "Phone": "(495) 783-26-04" }],
      "ChiefName": "Гумен Н С",
      "WorkingHours": [
        { "Hours": "закрыто", "DayOfWeek": "понедельник" },
        { "Hours": "закрыто", "DayOfWeek": "вторник" },
        { "Hours": "10:00-15:45", "DayOfWeek": "среда" },
        { "Hours": "закрыто", "DayOfWeek": "четверг" },
        { "Hours": "закрыто", "DayOfWeek": "пятница" },
        { "Hours": "10:00-15:45", "DayOfWeek": "суббота" },
        { "Hours": "10:00-15:45", "DayOfWeek": "воскресенье" }
      ],
      "Name": "Приют для безнадзорных животных",
      "geoData": {
        "type": "Point",
        "coordinates": [37.383932656523, 55.63345267769]
      }
    }
  },
  {
    "global_id": 167604457,
    "Number": 4,
    "Cells": {
      "global_id": 167604457,
      "DepartmentalAffiliation":
        "Префектура Юго-Восточного административного округа города Москвы",
      "ClarificationOfWorkingHours": null,
      "AdmArea": "Юго-Восточный административный округ",
      "District": "район Некрасовка",
      "Address": "2-я Вольская улица, дом 17А, строение 3",
      "Phone": [{ "Phone": "(495) 351-19-91" }],
      "ChiefName": "Тушов Денис Владимирович",
      "WorkingHours": [
        { "Hours": "09:00-18:00", "DayOfWeek": "понедельник" },
        { "Hours": "09:00-18:00", "DayOfWeek": "вторник" },
        { "Hours": "09:00-18:00", "DayOfWeek": "среда" },
        { "Hours": "09:00-18:00", "DayOfWeek": "четверг" },
        { "Hours": "09:00-18:00", "DayOfWeek": "пятница" },
        { "Hours": "09:00-18:00", "DayOfWeek": "суббота" },
        { "Hours": "09:00-18:00", "DayOfWeek": "воскресенье" }
      ],
      "Name":
        "Приют для содержания безнадзорных и бесхозяйных животных № 12 Юго-Восточного административного округа",
      "geoData": {
        "type": "Point",
        "coordinates": [37.935538502407, 55.687766725601]
      }
    }
  },
  {
    "global_id": 167604461,
    "Number": 5,
    "Cells": {
      "global_id": 167604461,
      "DepartmentalAffiliation":
        "Префектура Юго-Восточного административного округа города Москвы",
      "ClarificationOfWorkingHours": null,
      "AdmArea": "Юго-Восточный административный округ",
      "District": "район Печатники",
      "Address": "Проектируемый проезд N 5112, дом 2, строение 1",
      "Phone": [{ "Phone": "(495) 351-19-91" }],
      "ChiefName": "Тушов Денис Владимирович",
      "WorkingHours": [
        { "Hours": "09:00-18:00", "DayOfWeek": "понедельник" },
        { "Hours": "09:00-18:00", "DayOfWeek": "вторник" },
        { "Hours": "09:00-18:00", "DayOfWeek": "среда" },
        { "Hours": "09:00-18:00", "DayOfWeek": "четверг" },
        { "Hours": "09:00-18:00", "DayOfWeek": "пятница" },
        { "Hours": "09:00-18:00", "DayOfWeek": "суббота" },
        { "Hours": "09:00-18:00", "DayOfWeek": "воскресенье" }
      ],
      "Name":
        "Приют для содержания безнадзорных и бесхозяйных животных № 13 Юго-Восточного административного округа",
      "geoData": {
        "type": "Point",
        "coordinates": [37.703159781866, 55.667385014813]
      }
    }
  },
  {
    "global_id": 167615349,
    "Number": 6,
    "Cells": {
      "global_id": 167615349,
      "DepartmentalAffiliation":
        "Префектура Северного административного округа города Москвы",
      "ClarificationOfWorkingHours": "Понедельник санитарный день",
      "AdmArea": "Северный административный округ",
      "District": "Молжаниновский район",
      "Address": "Машкинское шоссе, владение 4",
      "Phone": [{ "Phone": "(916) 884-27-04" }],
      "ChiefName": "Мингалеев Дамир Фагиеевич",
      "WorkingHours": [
        {
          "Hours": "выходной",
          "DayOfWeek": {
            "mongoField": "понедельник",
            "postgreField": [{ "key": "1", "value": "понедельник" }]
          }
        },
        {
          "Hours": "09:00-18:00",
          "DayOfWeek": {
            "mongoField": "вторник",
            "postgreField": [{ "key": "2", "value": "вторник" }]
          }
        },
        {
          "Hours": "09:00-18:00",
          "DayOfWeek": {
            "mongoField": "среда",
            "postgreField": [{ "key": "3", "value": "среда" }]
          }
        },
        {
          "Hours": "09:00-18:00",
          "DayOfWeek": {
            "mongoField": "четверг",
            "postgreField": [{ "key": "4", "value": "четверг" }]
          }
        },
        {
          "Hours": "09:00-18:00",
          "DayOfWeek": {
            "mongoField": "пятница",
            "postgreField": [{ "key": "5", "value": "пятница" }]
          }
        },
        {
          "Hours": "09:00-18:00",
          "DayOfWeek": {
            "mongoField": "суббота",
            "postgreField": [{ "key": "6", "value": "суббота" }]
          }
        },
        {
          "Hours": "09:00-18:00",
          "DayOfWeek": {
            "mongoField": "воскресенье",
            "postgreField": [{ "key": "7", "value": "воскресенье" }]
          }
        }
      ],
      "Name": "Приют для бродячих животны",
      "geoData": {
        "type": "Point",
        "coordinates": [37.387938114894, 55.913662042666]
      }
    }
  },
  {
    "global_id": 167615358,
    "Number": 7,
    "Cells": {
      "global_id": 167615358,
      "DepartmentalAffiliation":
        "Префектура Северного административного округа города Москвы",
      "ClarificationOfWorkingHours": "Понедельник санитарный день",
      "AdmArea": "Северный административный округ",
      "District": "Молжаниновский район",
      "Address": "Машкинское шоссе, дом 38",
      "Phone": [{ "Phone": "(916) 884-27-04" }],
      "ChiefName": "Мингалеев Дамир Фагимович",
      "WorkingHours": [
        {
          "Hours": "выходной",
          "DayOfWeek": {
            "mongoField": "понедельник",
            "postgreField": [{ "key": "1", "value": "понедельник" }]
          }
        },
        {
          "Hours": "09:00-18:00",
          "DayOfWeek": {
            "mongoField": "вторник",
            "postgreField": [{ "key": "2", "value": "вторник" }]
          }
        },
        {
          "Hours": "09:00-18:00",
          "DayOfWeek": {
            "mongoField": "среда",
            "postgreField": [{ "key": "3", "value": "среда" }]
          }
        },
        {
          "Hours": "09:00-18:00",
          "DayOfWeek": {
            "mongoField": "четверг",
            "postgreField": [{ "key": "4", "value": "четверг" }]
          }
        },
        {
          "Hours": "09:00-18:00",
          "DayOfWeek": {
            "mongoField": "пятница",
            "postgreField": [{ "key": "5", "value": "пятница" }]
          }
        },
        {
          "Hours": "09:00-18:00",
          "DayOfWeek": {
            "mongoField": "суббота",
            "postgreField": [{ "key": "6", "value": "суббота" }]
          }
        },
        {
          "Hours": "09:00-18:00",
          "DayOfWeek": {
            "mongoField": "воскресенье",
            "postgreField": [{ "key": "7", "value": "воскресенье" }]
          }
        }
      ],
      "Name": "Приют для бродячих животных",
      "geoData": {
        "type": "Point",
        "coordinates": [37.370048373446, 55.911192400557]
      }
    }
  },
  {
    "global_id": 167717826,
    "Number": 8,
    "Cells": {
      "global_id": 167717826,
      "DepartmentalAffiliation":
        "Префектура Юго-Западного административного округа города Москвы",
      "ClarificationOfWorkingHours": null,
      "AdmArea": "Юго-Западный административный округ",
      "District": "район Южное Бутово",
      "Address": "улица Брусилова, владение 32, строение 1",
      "Phone": [{ "Phone": "(495) 335-17-25" }],
      "ChiefName": "Пошешулин Антон Юрьевич",
      "WorkingHours": [
        { "Hours": "09:00-18:00", "DayOfWeek": "понедельник" },
        { "Hours": "09:00-18:00", "DayOfWeek": "вторник" },
        { "Hours": "09:00-18:00", "DayOfWeek": "среда" },
        { "Hours": "09:00-18:00", "DayOfWeek": "четверг" },
        { "Hours": "09:00-17:00", "DayOfWeek": "пятница" },
        { "Hours": "выходной", "DayOfWeek": "суббота" },
        { "Hours": "выходной", "DayOfWeek": "воскресенье" }
      ],
      "Name":
        "Приют для содержания безнадзорных и бесхозяйных животных в Щербинке ЮЗАО",
      "geoData": {
        "type": "Point",
        "coordinates": [37.597124769304, 55.499222982319]
      }
    }
  },
  {
    "global_id": 167718005,
    "Number": 9,
    "Cells": {
      "global_id": 167718005,
      "DepartmentalAffiliation":
        "Префектура Северо-Восточного административного округа города Москвы",
      "ClarificationOfWorkingHours": null,
      "AdmArea": "Северо-Восточный административный округ",
      "District": "Ярославский район",
      "Address": "улица Красная Сосна, дом 30, строение 8",
      "Phone": [{ "Phone": "(956) 619-83-00" }],
      "ChiefName": "Злодеев Евгений Леонидович",
      "WorkingHours": [
        { "Hours": "08:00-17:00", "DayOfWeek": "понедельник" },
        { "Hours": "08:00-17:00", "DayOfWeek": "вторник" },
        { "Hours": "08:00-17:00", "DayOfWeek": "среда" },
        { "Hours": "08:00-17:00", "DayOfWeek": "четверг" },
        { "Hours": "08:00-17:00", "DayOfWeek": "пятница" },
        { "Hours": "08:00-17:00", "DayOfWeek": "суббота" },
        { "Hours": "08:00-17:00", "DayOfWeek": "воскресенье" }
      ],
      "Name":
        "Приют по содержанию бесхозяйных и безнадзорных животных по улице Красная Сосна, дом 30, строение 8",
      "geoData": {
        "type": "Point",
        "coordinates": [37.678370005013, 55.843497979048]
      }
    }
  },
  {
    "global_id": 167718012,
    "Number": 10,
    "Cells": {
      "global_id": 167718012,
      "DepartmentalAffiliation":
        "Префектура Северо-Восточного административного округа города Москвы",
      "ClarificationOfWorkingHours": null,
      "AdmArea": "Северо-Восточный административный округ",
      "District": "Бабушкинский район",
      "Address": "улица Искры, владение 23 А",
      "Phone": [{ "Phone": "(495) 619-83-00" }],
      "ChiefName": "Злодеев Евгений Леонидович",
      "WorkingHours": [
        { "Hours": "08:00-17:00", "DayOfWeek": "понедельник" },
        { "Hours": "08:00-17:00", "DayOfWeek": "вторник" },
        { "Hours": "08:00-17:00", "DayOfWeek": "среда" },
        { "Hours": "08:00-17:00", "DayOfWeek": "четверг" },
        { "Hours": "08:00-17:00", "DayOfWeek": "пятница" },
        { "Hours": "08:00-17:00", "DayOfWeek": "суббота" },
        { "Hours": "08:00-17:00", "DayOfWeek": "воскресенье" }
      ],
      "Name":
        "Приют по содержанию бесхозяйных и безнадзорных животных по адресу улица Искры, владение 23 А",
      "geoData": {
        "type": "Point",
        "coordinates": [37.654824560166, 55.863764024994]
      }
    }
  },
  {
    "global_id": 167718015,
    "Number": 11,
    "Cells": {
      "global_id": 167718015,
      "DepartmentalAffiliation":
        "Префектура Северо-Восточного административного округа города Москвы",
      "ClarificationOfWorkingHours": null,
      "AdmArea": "Северо-Восточный административный округ",
      "District": "Останкинский район",
      "Address": "проезд Дубовой Рощи, владение 23 - 25",
      "Phone": [{ "Phone": "(495) 619-83-00" }],
      "ChiefName": "Злодеев Евгений Леонидович",
      "WorkingHours": [
        { "Hours": "08:00-17:00", "DayOfWeek": "понедельник" },
        { "Hours": "08:00-17:00", "DayOfWeek": "вторник" },
        { "Hours": "08:00-17:00", "DayOfWeek": "среда" },
        { "Hours": "08:00-17:00", "DayOfWeek": "четверг" },
        { "Hours": "08:00-17:00", "DayOfWeek": "пятница" },
        { "Hours": "08:00-17:00", "DayOfWeek": "суббота" },
        { "Hours": "08:00-17:00", "DayOfWeek": "воскресенье" }
      ],
      "Name":
        "Приют по содержанию бесхозяйных и безнадзорных животных по адресу проезд Дубовая Роща, владение 23 - 25",
      "geoData": {
        "type": "Point",
        "coordinates": [37.605558908169, 55.817573731488]
      }
    }
  },
  {
    "global_id": 167762257,
    "Number": 12,
    "Cells": {
      "global_id": 167762257,
      "DepartmentalAffiliation":
        "Префектура Южного административного округа города Москвы",
      "ClarificationOfWorkingHours": null,
      "AdmArea": "Южный административный округ",
      "District": "район Бирюлёво Западное",
      "Address": "город Москва, Востряковский проезд, дом 10А",
      "Phone": [{ "Phone": "(926) 912-12-93" }],
      "ChiefName": "Черкасов Виктор Александрович",
      "WorkingHours": [
        { "Hours": "выходной", "DayOfWeek": "понедельник" },
        { "Hours": "выходной", "DayOfWeek": "вторник" },
        { "Hours": "11:00-18:00", "DayOfWeek": "среда" },
        { "Hours": "11:00-18:00", "DayOfWeek": "четверг" },
        { "Hours": "11:00-18:00", "DayOfWeek": "пятница" },
        { "Hours": "10:00-18:00", "DayOfWeek": "суббота" },
        { "Hours": "10:00-18:00", "DayOfWeek": "воскресенье" }
      ],
      "Name": "Приют для безнадзорных и бесхозяйных животных",
      "geoData": {
        "type": "Point",
        "coordinates": [37.616501020764, 55.581287644085]
      }
    }
  },
  {
    "global_id": 168322745,
    "Number": 13,
    "Cells": {
      "global_id": 168322745,
      "DepartmentalAffiliation":
        "Префектура Восточного административного округа города Москвы",
      "ClarificationOfWorkingHours":
        "Посещение для волонтёров, имеющих пропуска; для желающих взять животное ежедневно 10:00-18:00 при наличии паспорта",
      "AdmArea": "Восточный административный округ",
      "District": "район Косино-Ухтомский",
      "Address": "Пехорская улица, дом 1Б",
      "Phone": [{ "Phone": "(916) 720-33-52" }, { "Phone": "(905) 583-94-71" }],
      "ChiefName": "Марсон Юта Карловна",
      "WorkingHours": [
        { "Hours": "10:00-19:00", "DayOfWeek": "понедельник" },
        { "Hours": "10:00-19:00", "DayOfWeek": "вторник" },
        { "Hours": "10:00-19:00", "DayOfWeek": "среда" },
        { "Hours": "закрыто", "DayOfWeek": "четверг" },
        { "Hours": "10:00-19:00", "DayOfWeek": "пятница" },
        { "Hours": "09:00-20:00", "DayOfWeek": "суббота" },
        { "Hours": "09:00-20:00", "DayOfWeek": "воскресенье" }
      ],
      "Name": "Приют для безнадзорных и бесхозных животных",
      "geoData": {
        "type": "Point",
        "coordinates": [37.933327782663, 55.722450031074]
      }
    }
  },
  {
    "global_id": 639711207,
    "Number": 14,
    "Cells": {
      "global_id": 639711207,
      "DepartmentalAffiliation":
        "Префектура Северного административного округа города Москвы",
      "ClarificationOfWorkingHours": null,
      "AdmArea": "Северо-Восточный административный округ",
      "District": "район Отрадное",
      "Address": "Сигнальный проезд, владение 4",
      "Phone": [{ "Phone": "(495) 514-33-89" }],
      "ChiefName": "Палиенко Елена Петровна",
      "WorkingHours": [
        {
          "Hours": "09:00-17:00",
          "DayOfWeek": {
            "mongoField": "понедельник",
            "postgreField": [{ "key": "1", "value": "понедельник" }]
          }
        },
        {
          "Hours": "09:00-17:00",
          "DayOfWeek": {
            "mongoField": "вторник",
            "postgreField": [{ "key": "2", "value": "вторник" }]
          }
        },
        {
          "Hours": "09:00-17:00",
          "DayOfWeek": {
            "mongoField": "среда",
            "postgreField": [{ "key": "3", "value": "среда" }]
          }
        },
        {
          "Hours": "09:00-17:00",
          "DayOfWeek": {
            "mongoField": "четверг",
            "postgreField": [{ "key": "4", "value": "четверг" }]
          }
        },
        {
          "Hours": "09:00-17:00",
          "DayOfWeek": {
            "mongoField": "пятница",
            "postgreField": [{ "key": "5", "value": "пятница" }]
          }
        },
        {
          "Hours": "09:00-17:00",
          "DayOfWeek": {
            "mongoField": "суббота",
            "postgreField": [{ "key": "6", "value": "суббота" }]
          }
        },
        {
          "Hours": "09:00-17:00",
          "DayOfWeek": {
            "mongoField": "воскресенье",
            "postgreField": [{ "key": "7", "value": "воскресенье" }]
          }
        }
      ],
      "Name": "Приют для бродячих животных САО",
      "geoData": {
        "type": "Point",
        "coordinates": [37.588198442402, 55.848323670598]
      }
    }
  },
  {
    "global_id": 639711277,
    "Number": 15,
    "Cells": {
      "global_id": 639711277,
      "DepartmentalAffiliation":
        "Префектура Северного административного округа города Москвы",
      "ClarificationOfWorkingHours": null,
      "AdmArea": "Северный административный округ",
      "District": "район Восточное Дегунино",
      "Address": "город Москва, Дубнинская улица, владение 83А, строение 19Б/Н",
      "Phone": [{ "Phone": "(495) 514-33-89" }],
      "ChiefName": "Палиенко Елена Пеировна",
      "WorkingHours": [
        {
          "Hours": "10:00-18:00",
          "DayOfWeek": {
            "mongoField": "понедельник",
            "postgreField": [{ "key": "1", "value": "понедельник" }]
          }
        },
        {
          "Hours": "10:00-18:00",
          "DayOfWeek": {
            "mongoField": "вторник",
            "postgreField": [{ "key": "2", "value": "вторник" }]
          }
        },
        {
          "Hours": "10:00-18:00",
          "DayOfWeek": {
            "mongoField": "среда",
            "postgreField": [{ "key": "3", "value": "среда" }]
          }
        },
        {
          "Hours": "10:00-18:00",
          "DayOfWeek": {
            "mongoField": "четверг",
            "postgreField": [{ "key": "4", "value": "четверг" }]
          }
        },
        {
          "Hours": "10:00-18:00",
          "DayOfWeek": {
            "mongoField": "пятница",
            "postgreField": [{ "key": "5", "value": "пятница" }]
          }
        },
        {
          "Hours": "выходной",
          "DayOfWeek": {
            "mongoField": "суббота",
            "postgreField": [{ "key": "6", "value": "суббота" }]
          }
        },
        {
          "Hours": "выходной",
          "DayOfWeek": {
            "mongoField": "воскресенье",
            "postgreField": [{ "key": "7", "value": "воскресенье" }]
          }
        }
      ],
      "Name": "приют для бродячих животных",
      "geoData": {
        "type": "Point",
        "coordinates": [37.551953103905, 55.893366929068]
      }
    }
  }
]
