[
  {
    "global_id": 1689824,
    "Number": 1,
    "Cells": {
      "global_id": 1689824,
      "Email": "82@sao.subsident.ru",
      "WorkingHours": [
        { "DayOfWeek": "понедельник", "Hours": "09:00-18:00" },
        { "DayOfWeek": "вторник", "Hours": "09:00-18:00" },
        { "DayOfWeek": "среда", "Hours": "09:00-18:00" },
        { "DayOfWeek": "четверг", "Hours": "09:00-18:00" },
        { "DayOfWeek": "пятница", "Hours": "09:00-16:45" },
        { "DayOfWeek": "суббота", "Hours": "выходной" },
        { "DayOfWeek": "воскресенье", "Hours": "выходной" }
      ],
      "ExtraInfo":
        "Данный отдел жилищных субсидий обслуживает только юридические лица; прием населения ведется в Центре государственных услуг Мои документы.",
      "Name": "Отдел жилищных субсидий района Западное Дегунино",
      "AdmArea": "Северный административный округ",
      "District": "район Западное Дегунино",
      "Address": "Новая улица, дом 7",
      "Phone": [{ "Phone": "(499) 906-33-88" }],
      "ClarificationOfWorkingHours": null,
      "geoData": {
        "type": "Point",
        "coordinates": [37.511583740063, 55.87542490016]
      }
    }
  },
  {
    "global_id": 1689825,
    "Number": 2,
    "Cells": {
      "global_id": 1689825,
      "Email": "108@sao.subsident.ru",
      "WorkingHours": [
        { "DayOfWeek": "понедельник", "Hours": "09:00-18:00" },
        { "DayOfWeek": "вторник", "Hours": "09:00-18:00" },
        { "DayOfWeek": "среда", "Hours": "09:00-18:00" },
        { "DayOfWeek": "четверг", "Hours": "09:00-18:00" },
        { "DayOfWeek": "пятница", "Hours": "09:00-16:45" },
        { "DayOfWeek": "суббота", "Hours": "выходной" },
        { "DayOfWeek": "воскресенье", "Hours": "выходной" }
      ],
      "ExtraInfo":
        "Данный отдел жилищных субсидий обслуживает только юридические лица; прием населения ведется в Центре государственных услуг Мои документы.",
      "Name": "Отдел жилищных субсидий района Коптево",
      "AdmArea": "Северный административный округ",
      "District": "район Коптево",
      "Address": "улица Зои и Александра Космодемьянских, дом 27",
      "Phone": [{ "Phone": "(495) 450-66-69" }],
      "ClarificationOfWorkingHours": null,
      "geoData": {
        "type": "Point",
        "coordinates": [37.520738710506, 55.82385793124]
      }
    }
  },
  {
    "global_id": 1689826,
    "Number": 3,
    "Cells": {
      "global_id": 1689826,
      "Email": "124@sao.subsident.ru",
      "WorkingHours": [
        { "DayOfWeek": "понедельник", "Hours": "09:00-18:00" },
        { "DayOfWeek": "вторник", "Hours": "09:00-18:00" },
        { "DayOfWeek": "среда", "Hours": "09:00-18:00" },
        { "DayOfWeek": "четверг", "Hours": "09:00-18:00" },
        { "DayOfWeek": "пятница", "Hours": "09:00-16:45" },
        { "DayOfWeek": "суббота", "Hours": "выходной" },
        { "DayOfWeek": "воскресенье", "Hours": "выходной" }
      ],
      "ExtraInfo":
        "Данный отдел жилищных субсидий обслуживает только юридические лица; прием населения ведется в Центре государственных услуг Мои документы.",
      "Name": "Отдел жилищных субсидий района Левобережный",
      "AdmArea": "Северный административный округ",
      "District": "район Левобережный",
      "Address": "Смольная улица, дом 51, корпус 1",
      "Phone": [{ "Phone": "(499) 767-17-62" }],
      "ClarificationOfWorkingHours": null,
      "geoData": {
        "type": "Point",
        "coordinates": [37.477368522906, 55.864514166599]
      }
    }
  },
  {
    "global_id": 1689827,
    "Number": 4,
    "Cells": {
      "global_id": 1689827,
      "Email": "109@sao.subsident.ru",
      "WorkingHours": [
        { "DayOfWeek": "понедельник", "Hours": "09:00-18:00" },
        { "DayOfWeek": "вторник", "Hours": "09:00-18:00" },
        { "DayOfWeek": "среда", "Hours": "09:00-18:00" },
        { "DayOfWeek": "четверг", "Hours": "09:00-18:00" },
        { "DayOfWeek": "пятница", "Hours": "09:00-16:45" },
        { "DayOfWeek": "суббота", "Hours": "выходной" },
        { "DayOfWeek": "воскресенье", "Hours": "выходной" }
      ],
      "ExtraInfo":
        "Данный отдел жилищных субсидий обслуживает только юридические лица; прием населения ведется в Центре государственных услуг Мои документы.",
      "Name": "Отдел жилищных субсидий района Савеловский",
      "AdmArea": "Северный административный округ",
      "District": "Савёловский район",
      "Address": "4-й Вятский переулок, дом 18, корпус 2",
      "Phone": [{ "Phone": "(495) 612-79-66" }],
      "ClarificationOfWorkingHours": null,
      "geoData": {
        "type": "Point",
        "coordinates": [37.570342639163, 55.801428311409]
      }
    }
  },
  {
    "global_id": 1689828,
    "Number": 5,
    "Cells": {
      "global_id": 1689828,
      "Email": "36@svao.subsident.ru",
      "WorkingHours": [
        { "DayOfWeek": "понедельник", "Hours": "09:00-18:00" },
        { "DayOfWeek": "вторник", "Hours": "09:00-18:00" },
        { "DayOfWeek": "среда", "Hours": "09:00-18:00" },
        { "DayOfWeek": "четверг", "Hours": "09:00-18:00" },
        { "DayOfWeek": "пятница", "Hours": "09:00-16:45" },
        { "DayOfWeek": "суббота", "Hours": "выходной" },
        { "DayOfWeek": "воскресенье", "Hours": "выходной" }
      ],
      "ExtraInfo":
        "Данный отдел жилищных субсидий обслуживает только юридические лица; прием населения ведется в Центре государственных услуг Мои документы.",
      "Name": "Отдел жилищных субсидий района Бибирево",
      "AdmArea": "Северо-Восточный административный округ",
      "District": "район Бибирево",
      "Address": "Шенкурский проезд, дом 12Б",
      "Phone": [{ "Phone": "(499) 209-46-47" }],
      "ClarificationOfWorkingHours": null,
      "geoData": {
        "type": "Point",
        "coordinates": [37.594981909669, 55.895442608551]
      }
    }
  },
  {
    "global_id": 1689829,
    "Number": 6,
    "Cells": {
      "global_id": 1689829,
      "Email": "29@svao.subsident.ru",
      "WorkingHours": [
        { "DayOfWeek": "понедельник", "Hours": "09:00-18:00" },
        { "DayOfWeek": "вторник", "Hours": "09:00-18:00" },
        { "DayOfWeek": "среда", "Hours": "09:00-18:00" },
        { "DayOfWeek": "четверг", "Hours": "09:00-18:00" },
        { "DayOfWeek": "пятница", "Hours": "09:00-16:45" },
        { "DayOfWeek": "суббота", "Hours": "выходной" },
        { "DayOfWeek": "воскресенье", "Hours": "выходной" }
      ],
      "ExtraInfo":
        "Данный отдел жилищных субсидий обслуживает только юридические лица; прием населения ведется в Центре государственных услуг Мои документы.",
      "Name": "Отдел жилищных субсидий района Бутырский",
      "AdmArea": "Северо-Восточный административный округ",
      "District": "Бутырский район",
      "Address": "улица Милашенкова, дом 12В",
      "Phone": [{ "Phone": "(495) 639-43-24" }],
      "ClarificationOfWorkingHours": null,
      "geoData": {
        "type": "Point",
        "coordinates": [37.585251643495, 55.827131088297]
      }
    }
  },
  {
    "global_id": 1689830,
    "Number": 7,
    "Cells": {
      "global_id": 1689830,
      "Email": "133@svao.subsident.ru",
      "WorkingHours": [
        { "DayOfWeek": "понедельник", "Hours": "09:00-18:00" },
        { "DayOfWeek": "вторник", "Hours": "09:00-18:00" },
        { "DayOfWeek": "среда", "Hours": "09:00-18:00" },
        { "DayOfWeek": "четверг", "Hours": "09:00-18:00" },
        { "DayOfWeek": "пятница", "Hours": "09:00-16:45" },
        { "DayOfWeek": "суббота", "Hours": "выходной" },
        { "DayOfWeek": "воскресенье", "Hours": "выходной" }
      ],
      "ExtraInfo":
        "Данный отдел жилищных субсидий обслуживает только юридические лица; прием населения ведется в Центре государственных услуг Мои документы.",
      "Name": "Отдел жилищных субсидий района Лианозово",
      "AdmArea": "Северо-Восточный административный округ",
      "District": "район Лианозово",
      "Address": "Новгородская улица, дом 32",
      "Phone": [{ "Phone": "(499) 200-28-56" }],
      "ClarificationOfWorkingHours": null,
      "geoData": {
        "type": "Point",
        "coordinates": [37.581370447721, 55.903597406584]
      }
    }
  },
  {
    "global_id": 1689831,
    "Number": 8,
    "Cells": {
      "global_id": 1689831,
      "Email": "101@svao.subsident.ru",
      "WorkingHours": [
        { "DayOfWeek": "понедельник", "Hours": "09:00-18:00" },
        { "DayOfWeek": "вторник", "Hours": "09:00-18:00" },
        { "DayOfWeek": "среда", "Hours": "09:00-18:00" },
        { "DayOfWeek": "четверг", "Hours": "09:00-18:00" },
        { "DayOfWeek": "пятница", "Hours": "09:00-16:45" },
        { "DayOfWeek": "суббота", "Hours": "выходной" },
        { "DayOfWeek": "воскресенье", "Hours": "выходной" }
      ],
      "ExtraInfo":
        "Данный отдел жилищных субсидий обслуживает только юридические лица; прием населения ведется в Центре государственных услуг Мои документы.",
      "Name": "Отдел жилищных субсидий района Лосиноостровский",
      "AdmArea": "Северо-Восточный административный округ",
      "District": "Лосиноостровский район",
      "Address": "Изумрудная улица, дом 22",
      "Phone": [{ "Phone": "(499) 184-11-00" }],
      "ClarificationOfWorkingHours": null,
      "geoData": {
        "type": "Point",
        "coordinates": [37.684323384674, 55.871651321037]
      }
    }
  },
  {
    "global_id": 1689832,
    "Number": 9,
    "Cells": {
      "global_id": 1689832,
      "Email": "132@svao.subsident.ru",
      "WorkingHours": [
        { "DayOfWeek": "понедельник", "Hours": "09:00-18:00" },
        { "DayOfWeek": "вторник", "Hours": "09:00-18:00" },
        { "DayOfWeek": "среда", "Hours": "09:00-18:00" },
        { "DayOfWeek": "четверг", "Hours": "09:00-18:00" },
        { "DayOfWeek": "пятница", "Hours": "09:00-16:45" },
        { "DayOfWeek": "суббота", "Hours": "выходной" },
        { "DayOfWeek": "воскресенье", "Hours": "выходной" }
      ],
      "ExtraInfo":
        "Данный отдел жилищных субсидий обслуживает только юридические лица; прием населения ведется в Центре государственных услуг Мои документы.",
      "Name": "Отдел жилищных субсидий района Марфино",
      "AdmArea": "Северо-Восточный административный округ",
      "District": "район Марфино",
      "Address": "Большая Марфинская улица, дом 4",
      "Phone": [{ "Phone": "(495) 618-06-62" }],
      "ClarificationOfWorkingHours": null,
      "geoData": {
        "type": "Point",
        "coordinates": [37.59302449201, 55.831213049418]
      }
    }
  },
  {
    "global_id": 1689833,
    "Number": 10,
    "Cells": {
      "global_id": 1689833,
      "Email": "24@svao.subsident.ru",
      "WorkingHours": [
        { "DayOfWeek": "понедельник", "Hours": "09:00-18:00" },
        { "DayOfWeek": "вторник", "Hours": "09:00-18:00" },
        { "DayOfWeek": "среда", "Hours": "09:00-18:00" },
        { "DayOfWeek": "четверг", "Hours": "09:00-18:00" },
        { "DayOfWeek": "пятница", "Hours": "09:00-16:45" },
        { "DayOfWeek": "суббота", "Hours": "выходной" },
        { "DayOfWeek": "воскресенье", "Hours": "выходной" }
      ],
      "ExtraInfo":
        "Данный отдел жилищных субсидий обслуживает только юридические лица; прием населения ведется в Центре государственных услуг Мои документы.",
      "Name": "Отдел жилищных субсидий района Отрадное",
      "AdmArea": "Северо-Восточный административный округ",
      "District": "район Отрадное",
      "Address": "Отрадная улица, дом 20",
      "Phone": [{ "Phone": "(499) 745-67-16" }],
      "ClarificationOfWorkingHours": null,
      "geoData": {
        "type": "Point",
        "coordinates": [37.618558959534, 55.854171016674]
      }
    }
  },
  {
    "global_id": 1689834,
    "Number": 11,
    "Cells": {
      "global_id": 1689834,
      "Email": "48@svao.subsident.ru",
      "WorkingHours": [
        { "DayOfWeek": "понедельник", "Hours": "09:00-18:00" },
        { "DayOfWeek": "вторник", "Hours": "09:00-18:00" },
        { "DayOfWeek": "среда", "Hours": "09:00-18:00" },
        { "DayOfWeek": "четверг", "Hours": "09:00-18:00" },
        { "DayOfWeek": "пятница", "Hours": "09:00-16:45" },
        { "DayOfWeek": "суббота", "Hours": "выходной" },
        { "DayOfWeek": "воскресенье", "Hours": "выходной" }
      ],
      "ExtraInfo":
        "Данный отдел жилищных субсидий обслуживает только юридические лица; прием населения ведется в Центре государственных услуг Мои документы.",
      "Name": "Отдел жилищных субсидий района Ростокино",
      "AdmArea": "Северо-Восточный административный округ",
      "District": "район Ростокино",
      "Address": "Сельскохозяйственная улица, дом 11, корпус 3",
      "Phone": [{ "Phone": "(499) 181-17-59" }],
      "ClarificationOfWorkingHours": null,
      "geoData": {
        "type": "Point",
        "coordinates": [37.642572664947, 55.834957328808]
      }
    }
  },
  {
    "global_id": 1689835,
    "Number": 12,
    "Cells": {
      "global_id": 1689835,
      "Email": "76@svao.subsident.ru",
      "WorkingHours": [
        { "DayOfWeek": "понедельник", "Hours": "09:00-18:00" },
        { "DayOfWeek": "вторник", "Hours": "09:00-18:00" },
        { "DayOfWeek": "среда", "Hours": "09:00-18:00" },
        { "DayOfWeek": "четверг", "Hours": "09:00-18:00" },
        { "DayOfWeek": "пятница", "Hours": "09:00-16:45" },
        { "DayOfWeek": "суббота", "Hours": "выходной" },
        { "DayOfWeek": "воскресенье", "Hours": "выходной" }
      ],
      "ExtraInfo":
        "Данный отдел жилищных субсидий обслуживает только юридические лица; прием населения ведется в Центре государственных услуг Мои документы.",
      "Name": "Отдел жилищных субсидий района Свиблово",
      "AdmArea": "Северо-Восточный административный округ",
      "District": "район Свиблово",
      "Address": "Снежная улица, дом 17, корпус 2",
      "Phone": [{ "Phone": "(495) 656-69-47" }],
      "ClarificationOfWorkingHours": null,
      "geoData": {
        "type": "Point",
        "coordinates": [37.646910270597, 55.853081954142]
      }
    }
  },
  {
    "global_id": 1689836,
    "Number": 13,
    "Cells": {
      "global_id": 1689836,
      "Email": "35@svao.subsident.ru",
      "WorkingHours": [
        { "DayOfWeek": "понедельник", "Hours": "09:00-18:00" },
        { "DayOfWeek": "вторник", "Hours": "09:00-18:00" },
        { "DayOfWeek": "среда", "Hours": "09:00-18:00" },
        { "DayOfWeek": "четверг", "Hours": "09:00-18:00" },
        { "DayOfWeek": "пятница", "Hours": "09:00-16:45" },
        { "DayOfWeek": "суббота", "Hours": "выходной" },
        { "DayOfWeek": "воскресенье", "Hours": "выходной" }
      ],
      "ExtraInfo":
        "Данный отдел жилищных субсидий обслуживает только юридические лица; прием населения ведется в Центре государственных услуг Мои документы.",
      "Name": "Отдел жилищных субсидий района Северное Медведково",
      "AdmArea": "Северо-Восточный административный округ",
      "District": "район Северное Медведково",
      "Address": "Широкая улица, дом 15, корпус 2",
      "Phone": [{ "Phone": "(499) 476-21-75" }],
      "ClarificationOfWorkingHours": null,
      "geoData": {
        "type": "Point",
        "coordinates": [37.667518322985, 55.888780080837]
      }
    }
  },
  {
    "global_id": 1689837,
    "Number": 14,
    "Cells": {
      "global_id": 1689837,
      "Email": "21@svao.subsident.ru",
      "WorkingHours": [
        { "DayOfWeek": "понедельник", "Hours": "09:00-18:00" },
        { "DayOfWeek": "вторник", "Hours": "09:00-18:00" },
        { "DayOfWeek": "среда", "Hours": "09:00-18:00" },
        { "DayOfWeek": "четверг", "Hours": "09:00-18:00" },
        { "DayOfWeek": "пятница", "Hours": "09:00-16:45" },
        { "DayOfWeek": "суббота", "Hours": "выходной" },
        { "DayOfWeek": "воскресенье", "Hours": "выходной" }
      ],
      "ExtraInfo":
        "Данный отдел жилищных субсидий обслуживает только юридические лица; прием населения ведется в Центре государственных услуг Мои документы.",
      "Name": "Отдел жилищных субсидий района Южное Медведково",
      "AdmArea": "Северо-Восточный административный округ",
      "District": "район Южное Медведково",
      "Address": "Ясный проезд, дом 11А",
      "Phone": [{ "Phone": "(499) 473-62-57" }],
      "ClarificationOfWorkingHours": null,
      "geoData": {
        "type": "Point",
        "coordinates": [37.622183615899, 55.87316484581]
      }
    }
  },
  {
    "global_id": 1689838,
    "Number": 15,
    "Cells": {
      "global_id": 1689838,
      "Email": "107@svao.subsident.ru",
      "WorkingHours": [
        { "DayOfWeek": "понедельник", "Hours": "09:00-18:00" },
        { "DayOfWeek": "вторник", "Hours": "09:00-18:00" },
        { "DayOfWeek": "среда", "Hours": "09:00-18:00" },
        { "DayOfWeek": "четверг", "Hours": "09:00-18:00" },
        { "DayOfWeek": "пятница", "Hours": "09:00-16:45" },
        { "DayOfWeek": "суббота", "Hours": "выходной" },
        { "DayOfWeek": "воскресенье", "Hours": "выходной" }
      ],
      "ExtraInfo":
        "Данный отдел жилищных субсидий обслуживает только юридические лица; прием населения ведется в Центре государственных услуг Мои документы.",
      "Name": "Отдел жилищных субсидий района Ярославский",
      "AdmArea": "Северо-Восточный административный округ",
      "District": "Ярославский район",
      "Address": "Палехская улица, дом 14",
      "Phone": [{ "Phone": "(495) 656-18-61" }],
      "ClarificationOfWorkingHours": null,
      "geoData": {
        "type": "Point",
        "coordinates": [37.700165812021, 55.867858496063]
      }
    }
  },
  {
    "global_id": 1689839,
    "Number": 16,
    "Cells": {
      "global_id": 1689839,
      "Email": "85@vao.subsident.ru",
      "WorkingHours": [
        { "DayOfWeek": "понедельник", "Hours": "09:00-18:00" },
        { "DayOfWeek": "вторник", "Hours": "09:00-18:00" },
        { "DayOfWeek": "среда", "Hours": "09:00-18:00" },
        { "DayOfWeek": "четверг", "Hours": "09:00-18:00" },
        { "DayOfWeek": "пятница", "Hours": "09:00-16:45" },
        { "DayOfWeek": "суббота", "Hours": "выходной" },
        { "DayOfWeek": "воскресенье", "Hours": "выходной" }
      ],
      "ExtraInfo":
        "Данный отдел жилищных субсидий обслуживает только юридические лица; прием населения ведется в Центре государственных услуг Мои документы.",
      "Name": "Отдел жилищных субсидий района Преображенское",
      "AdmArea": "Восточный административный округ",
      "District": "район Преображенское",
      "Address": "Буженинова улица, дом 12",
      "Phone": [{ "Phone": "(495) 963-04-32" }],
      "ClarificationOfWorkingHours": null,
      "geoData": {
        "type": "Point",
        "coordinates": [37.708376193966, 55.788082314666]
      }
    }
  },
  {
    "global_id": 1689841,
    "Number": 17,
    "Cells": {
      "global_id": 1689841,
      "Email": "33@sao.subsident.ru",
      "WorkingHours": [
        { "DayOfWeek": "понедельник", "Hours": "09:00-18:00" },
        { "DayOfWeek": "вторник", "Hours": "09:00-18:00" },
        { "DayOfWeek": "среда", "Hours": "09:00-18:00" },
        { "DayOfWeek": "четверг", "Hours": "09:00-18:00" },
        { "DayOfWeek": "пятница", "Hours": "09:00-16:45" },
        { "DayOfWeek": "суббота", "Hours": "выходной" },
        { "DayOfWeek": "воскресенье", "Hours": "выходной" }
      ],
      "ExtraInfo":
        "Данный отдел жилищных субсидий обслуживает только юридические лица; прием населения ведется в Центре государственных услуг Мои документы.",
      "Name": "Отдел жилищных субсидий района Тимирязевский",
      "AdmArea": "Северный административный округ",
      "District": "Тимирязевский район",
      "Address": "Дмитровское шоссе, дом 3, корпус 2",
      "Phone": [{ "Phone": "(499) 977-01-85" }],
      "ClarificationOfWorkingHours": null,
      "geoData": {
        "type": "Point",
        "coordinates": [37.575144136649, 55.811369569872]
      }
    }
  },
  {
    "global_id": 1689842,
    "Number": 18,
    "Cells": {
      "global_id": 1689842,
      "Email": "69@sao.subsident.ru",
      "WorkingHours": [
        { "DayOfWeek": "понедельник", "Hours": "09:00-18:00" },
        { "DayOfWeek": "вторник", "Hours": "09:00-18:00" },
        { "DayOfWeek": "среда", "Hours": "09:00-18:00" },
        { "DayOfWeek": "четверг", "Hours": "09:00-18:00" },
        { "DayOfWeek": "пятница", "Hours": "09:00-16:45" },
        { "DayOfWeek": "суббота", "Hours": "выходной" },
        { "DayOfWeek": "воскресенье", "Hours": "выходной" }
      ],
      "ExtraInfo":
        "Данный отдел жилищных субсидий обслуживает только юридические лица; прием населения ведется в Центре государственных услуг Мои документы.",
      "Name": "Отдел жилищных субсидий района Ховрино",
      "AdmArea": "Северный административный округ",
      "District": "район Ховрино",
      "Address": "Онежская улица, дом 47",
      "Phone": [{ "Phone": "(495) 456-40-39" }],
      "ClarificationOfWorkingHours": null,
      "geoData": {
        "type": "Point",
        "coordinates": [37.508949877158, 55.85800401921]
      }
    }
  },
  {
    "global_id": 1689843,
    "Number": 19,
    "Cells": {
      "global_id": 1689843,
      "Email": "68@sao.subsident.ru",
      "WorkingHours": [
        { "DayOfWeek": "понедельник", "Hours": "09:00-18:00" },
        { "DayOfWeek": "вторник", "Hours": "09:00-18:00" },
        { "DayOfWeek": "среда", "Hours": "09:00-18:00" },
        { "DayOfWeek": "четверг", "Hours": "09:00-18:00" },
        { "DayOfWeek": "пятница", "Hours": "09:00-16:45" },
        { "DayOfWeek": "суббота", "Hours": "выходной" },
        { "DayOfWeek": "воскресенье", "Hours": "выходной" }
      ],
      "ExtraInfo":
        "Данный отдел жилищных субсидий обслуживает только юридические лица; прием населения ведется в Центре государственных услуг Мои документы.",
      "Name": "Отдел жилищных субсидий района Хорошевский",
      "AdmArea": "Северный административный округ",
      "District": "Хорошёвский район",
      "Address": "улица Куусинена, дом 4А, корпус 2",
      "Phone": [{ "Phone": "(499) 195-88-91" }],
      "ClarificationOfWorkingHours": null,
      "geoData": {
        "type": "Point",
        "coordinates": [37.517479114347, 55.780169809733]
      }
    }
  },
  {
    "global_id": 1689844,
    "Number": 20,
    "Cells": {
      "global_id": 1689844,
      "Email": "114@svao.subsident.ru",
      "WorkingHours": [
        { "DayOfWeek": "понедельник", "Hours": "09:00-18:00" },
        { "DayOfWeek": "вторник", "Hours": "09:00-18:00" },
        { "DayOfWeek": "среда", "Hours": "09:00-18:00" },
        { "DayOfWeek": "четверг", "Hours": "09:00-18:00" },
        { "DayOfWeek": "пятница", "Hours": "09:00-16:45" },
        { "DayOfWeek": "суббота", "Hours": "выходной" },
        { "DayOfWeek": "воскресенье", "Hours": "выходной" }
      ],
      "ExtraInfo":
        "Данный отдел жилищных субсидий обслуживает только юридические лица; прием населения ведется в Центре государственных услуг Мои документы.",
      "Name": "Отдел жилищных субсидий района Марьина Роща",
      "AdmArea": "Северо-Восточный административный округ",
      "District": "район Марьина Роща",
      "Address": "улица Образцова, дом 8А",
      "Phone": [{ "Phone": "(495) 681-43-49" }],
      "ClarificationOfWorkingHours": null,
      "geoData": {
        "type": "Point",
        "coordinates": [37.609119723367, 55.78694362393]
      }
    }
  },
  {
    "global_id": 1689845,
    "Number": 21,
    "Cells": {
      "global_id": 1689845,
      "Email": "102@svao.subsident.ru",
      "WorkingHours": [
        { "DayOfWeek": "понедельник", "Hours": "09:00-18:00" },
        { "DayOfWeek": "вторник", "Hours": "09:00-18:00" },
        { "DayOfWeek": "среда", "Hours": "09:00-18:00" },
        { "DayOfWeek": "четверг", "Hours": "09:00-18:00" },
        { "DayOfWeek": "пятница", "Hours": "09:00-16:45" },
        { "DayOfWeek": "суббота", "Hours": "выходной" },
        { "DayOfWeek": "воскресенье", "Hours": "выходной" }
      ],
      "ExtraInfo":
        "Данный отдел жилищных субсидий обслуживает только юридические лица; прием населения ведется в Центре государственных услуг Мои документы.",
      "Name": "Отдел жилищных субсидий района Алексеевский",
      "AdmArea": "Северо-Восточный административный округ",
      "District": "Алексеевский район",
      "Address": "улица Константинова, дом 11",
      "Phone": [{ "Phone": "(495) 686-29-02" }],
      "ClarificationOfWorkingHours": null,
      "geoData": {
        "type": "Point",
        "coordinates": [37.654560683779, 55.817273214293]
      }
    }
  },
  {
    "global_id": 1689846,
    "Number": 22,
    "Cells": {
      "global_id": 1689846,
      "Email": "39@svao.subsident.ru",
      "WorkingHours": [
        { "DayOfWeek": "понедельник", "Hours": "09:00-18:00" },
        { "DayOfWeek": "вторник", "Hours": "09:00-18:00" },
        { "DayOfWeek": "среда", "Hours": "09:00-18:00" },
        { "DayOfWeek": "четверг", "Hours": "09:00-18:00" },
        { "DayOfWeek": "пятница", "Hours": "09:00-16:45" },
        { "DayOfWeek": "суббота", "Hours": "выходной" },
        { "DayOfWeek": "воскресенье", "Hours": "выходной" }
      ],
      "ExtraInfo":
        "Данный отдел жилищных субсидий обслуживает только юридические лица; прием населения ведется в Центре государственных услуг Мои документы.",
      "Name": "Отдел жилищных субсидий района Алтуфьевский",
      "AdmArea": "Северо-Восточный административный округ",
      "District": "Алтуфьевский район",
      "Address": "Костромская улица, дом 4А",
      "Phone": [{ "Phone": "(499) 901-11-45" }],
      "ClarificationOfWorkingHours": null,
      "geoData": {
        "type": "Point",
        "coordinates": [37.589084792632, 55.880881468514]
      }
    }
  },
  {
    "global_id": 1689847,
    "Number": 23,
    "Cells": {
      "global_id": 1689847,
      "Email": "88@svao.subsident.ru",
      "WorkingHours": [
        { "DayOfWeek": "понедельник", "Hours": "09:00-18:00" },
        { "DayOfWeek": "вторник", "Hours": "09:00-18:00" },
        { "DayOfWeek": "среда", "Hours": "09:00-18:00" },
        { "DayOfWeek": "четверг", "Hours": "09:00-18:00" },
        { "DayOfWeek": "пятница", "Hours": "09:00-16:45" },
        { "DayOfWeek": "суббота", "Hours": "выходной" },
        { "DayOfWeek": "воскресенье", "Hours": "выходной" }
      ],
      "ExtraInfo":
        "Данный отдел жилищных субсидий обслуживает только юридические лица; прием населения ведется в Центре государственных услуг Мои документы.",
      "Name": "Отдел жилищных субсидий района Бабушкинский",
      "AdmArea": "Северо-Восточный административный округ",
      "District": "Бабушкинский район",
      "Address": "Енисейская улица, дом 32, корпус 2",
      "Phone": [{ "Phone": "(499) 185-87-32" }],
      "ClarificationOfWorkingHours": null,
      "geoData": {
        "type": "Point",
        "coordinates": [37.669522231468, 55.872814032911]
      }
    }
  },
  {
    "global_id": 1689848,
    "Number": 24,
    "Cells": {
      "global_id": 1689848,
      "Email": "75@cao.subsident.ru",
      "WorkingHours": [
        { "DayOfWeek": "понедельник", "Hours": "09:00-18:00" },
        { "DayOfWeek": "вторник", "Hours": "09:00-18:00" },
        { "DayOfWeek": "среда", "Hours": "09:00-18:00" },
        { "DayOfWeek": "четверг", "Hours": "09:00-18:00" },
        { "DayOfWeek": "пятница", "Hours": "09:00-16:45" },
        { "DayOfWeek": "суббота", "Hours": "выходной" },
        { "DayOfWeek": "воскресенье", "Hours": "выходной" }
      ],
      "ExtraInfo":
        "Данный отдел жилищных субсидий обслуживает только юридические лица; прием населения ведется в Центре государственных услуг Мои документы.",
      "Name": "Отдел жилищных субсидий района Басманный",
      "AdmArea": "Центральный административный округ",
      "District": "Басманный район",
      "Address": "1-й Басманный переулок, дом 6",
      "Phone": [{ "Phone": "(499) 261-40-94" }],
      "ClarificationOfWorkingHours": null,
      "geoData": {
        "type": "Point",
        "coordinates": [37.663760845515, 55.770756594861]
      }
    }
  },
  {
    "global_id": 1689849,
    "Number": 25,
    "Cells": {
      "global_id": 1689849,
      "Email": "131@cao.subsident.ru",
      "WorkingHours": [
        { "DayOfWeek": "понедельник", "Hours": "09:00-18:00" },
        { "DayOfWeek": "вторник", "Hours": "09:00-18:00" },
        { "DayOfWeek": "среда", "Hours": "09:00-18:00" },
        { "DayOfWeek": "четверг", "Hours": "09:00-18:00" },
        { "DayOfWeek": "пятница", "Hours": "09:00-16:45" },
        { "DayOfWeek": "суббота", "Hours": "выходной" },
        { "DayOfWeek": "воскресенье", "Hours": "выходной" }
      ],
      "ExtraInfo":
        "Данный отдел жилищных субсидий обслуживает только юридические лица; прием населения ведется в Центре государственных услуг Мои документы.",
      "Name": "Отдел жилищных субсидий района Замоскворечье",
      "AdmArea": "Центральный административный округ",
      "District": "район Замоскворечье",
      "Address": "3-й Монетчиковский переулок, дом 10/1",
      "Phone": [{ "Phone": "(495) 951-16-83" }],
      "ClarificationOfWorkingHours": null,
      "geoData": {
        "type": "Point",
        "coordinates": [37.629072812658, 55.732016379219]
      }
    }
  },
  {
    "global_id": 1689850,
    "Number": 26,
    "Cells": {
      "global_id": 1689850,
      "Email": "138@cao.subsident.ru",
      "WorkingHours": [
        { "DayOfWeek": "понедельник", "Hours": "09:00-18:00" },
        { "DayOfWeek": "вторник", "Hours": "09:00-18:00" },
        { "DayOfWeek": "среда", "Hours": "09:00-18:00" },
        { "DayOfWeek": "четверг", "Hours": "09:00-18:00" },
        { "DayOfWeek": "пятница", "Hours": "09:00-16:45" },
        { "DayOfWeek": "суббота", "Hours": "выходной" },
        { "DayOfWeek": "воскресенье", "Hours": "выходной" }
      ],
      "ExtraInfo":
        "Данный отдел жилищных субсидий обслуживает только юридические лица; прием населения ведется в Центре государственных услуг Мои документы.",
      "Name": "Отдел жилищных субсидий района Красносельский",
      "AdmArea": "Центральный административный округ",
      "District": "Красносельский район",
      "Address": "2-й Новый переулок, дом 3-5",
      "Phone": [{ "Phone": "(499) 264-80-96" }],
      "ClarificationOfWorkingHours": null,
      "geoData": {
        "type": "Point",
        "coordinates": [37.669538466141, 55.779975371968]
      }
    }
  },
  {
    "global_id": 1689851,
    "Number": 27,
    "Cells": {
      "global_id": 1689851,
      "Email": "74@cao.subsident.ru",
      "WorkingHours": [
        { "DayOfWeek": "понедельник", "Hours": "09:00-18:00" },
        { "DayOfWeek": "вторник", "Hours": "09:00-18:00" },
        { "DayOfWeek": "среда", "Hours": "09:00-18:00" },
        { "DayOfWeek": "четверг", "Hours": "09:00-18:00" },
        { "DayOfWeek": "пятница", "Hours": "09:00-16:45" },
        { "DayOfWeek": "суббота", "Hours": "выходной" },
        { "DayOfWeek": "воскресенье", "Hours": "выходной" }
      ],
      "ExtraInfo":
        "Данный отдел жилищных субсидий обслуживает только юридические лица; прием населения ведется в Центре государственных услуг Мои документы.",
      "Name": "Отдел жилищных субсидий района Мещанский",
      "AdmArea": "Центральный административный округ",
      "District": "Мещанский район",
      "Address": "Ботанический переулок, дом 7",
      "Phone": [{ "Phone": "(495) 680-80-49" }],
      "ClarificationOfWorkingHours": null,
      "geoData": {
        "type": "Point",
        "coordinates": [37.637822595875, 55.778347833862]
      }
    }
  },
  {
    "global_id": 1689852,
    "Number": 28,
    "Cells": {
      "global_id": 1689852,
      "Email": "135@cao.subsident.ru",
      "WorkingHours": [
        { "DayOfWeek": "понедельник", "Hours": "09:00-18:00" },
        { "DayOfWeek": "вторник", "Hours": "09:00-18:00" },
        { "DayOfWeek": "среда", "Hours": "09:00-18:00" },
        { "DayOfWeek": "четверг", "Hours": "09:00-18:00" },
        { "DayOfWeek": "пятница", "Hours": "09:00-16:45" },
        { "DayOfWeek": "суббота", "Hours": "выходной" },
        { "DayOfWeek": "воскресенье", "Hours": "выходной" }
      ],
      "ExtraInfo":
        "Данный отдел жилищных субсидий обслуживает только юридические лица; прием населения ведется в Центре государственных услуг Мои документы.",
      "Name": "Отдел жилищных субсидий района Пресненский",
      "AdmArea": "Центральный административный округ",
      "District": "Пресненский район",
      "Address": "улица 1905 Года, дом 19",
      "Phone": [{ "Phone": "(499) 253-34-55" }],
      "ClarificationOfWorkingHours": null,
      "geoData": {
        "type": "Point",
        "coordinates": [37.558603678054, 55.766693155809]
      }
    }
  },
  {
    "global_id": 1689853,
    "Number": 29,
    "Cells": {
      "global_id": 1689853,
      "Email": "79@cao.subsident.ru",
      "WorkingHours": [
        { "DayOfWeek": "понедельник", "Hours": "09:00-18:00" },
        { "DayOfWeek": "вторник", "Hours": "09:00-18:00" },
        { "DayOfWeek": "среда", "Hours": "09:00-18:00" },
        { "DayOfWeek": "четверг", "Hours": "09:00-18:00" },
        { "DayOfWeek": "пятница", "Hours": "09:00-16:45" },
        { "DayOfWeek": "суббота", "Hours": "выходной" },
        { "DayOfWeek": "воскресенье", "Hours": "выходной" }
      ],
      "ExtraInfo":
        "Данный отдел жилищных субсидий обслуживает только юридические лица; прием населения ведется в Центре государственных услуг Мои документы.",
      "Name": "Отдел жилищных субсидий района Таганский",
      "AdmArea": "Центральный административный округ",
      "District": "Таганский район",
      "Address": "Воронцовская улица, дом 21, строение 1",
      "Phone": [{ "Phone": "(495) 912-23-66" }],
      "ClarificationOfWorkingHours": null,
      "geoData": {
        "type": "Point",
        "coordinates": [37.659811086371, 55.736692512874]
      }
    }
  },
  {
    "global_id": 1689854,
    "Number": 30,
    "Cells": {
      "global_id": 1689854,
      "Email": "47@cao.subsident.ru",
      "WorkingHours": [
        { "DayOfWeek": "понедельник", "Hours": "09:00-18:00" },
        { "DayOfWeek": "вторник", "Hours": "09:00-18:00" },
        { "DayOfWeek": "среда", "Hours": "09:00-18:00" },
        { "DayOfWeek": "четверг", "Hours": "09:00-18:00" },
        { "DayOfWeek": "пятница", "Hours": "09:00-16:45" },
        { "DayOfWeek": "суббота", "Hours": "выходной" },
        { "DayOfWeek": "воскресенье", "Hours": "выходной" }
      ],
      "ExtraInfo":
        "Данный отдел жилищных субсидий обслуживает только юридические лица; прием населения ведется в Центре государственных услуг Мои документы.",
      "Name": "Отдел жилищных субсидий района Тверской",
      "AdmArea": "Центральный административный округ",
      "District": "Тверской район",
      "Address": "Долгоруковская улица, дом 33, строение 3",
      "Phone": [{ "Phone": "(499) 972-08-05" }],
      "ClarificationOfWorkingHours": null,
      "geoData": {
        "type": "Point",
        "coordinates": [37.600745545486, 55.777473873731]
      }
    }
  },
  {
    "global_id": 1689855,
    "Number": 31,
    "Cells": {
      "global_id": 1689855,
      "Email": "93@cao.subsident.ru",
      "WorkingHours": [
        { "DayOfWeek": "понедельник", "Hours": "09:00-18:00" },
        { "DayOfWeek": "вторник", "Hours": "09:00-18:00" },
        { "DayOfWeek": "среда", "Hours": "09:00-18:00" },
        { "DayOfWeek": "четверг", "Hours": "09:00-18:00" },
        { "DayOfWeek": "пятница", "Hours": "09:00-16:45" },
        { "DayOfWeek": "суббота", "Hours": "выходной" },
        { "DayOfWeek": "воскресенье", "Hours": "выходной" }
      ],
      "ExtraInfo":
        "Данный отдел жилищных субсидий обслуживает только юридические лица; прием населения ведется в Центре государственных услуг Мои документы.",
      "Name": "Отдел жилищных субсидий района Хамовники",
      "AdmArea": "Центральный административный округ",
      "District": "район Хамовники",
      "Address": "улица Ефремова, дом 13",
      "Phone": [{ "Phone": "(499) 766-87-69" }],
      "ClarificationOfWorkingHours": null,
      "geoData": {
        "type": "Point",
        "coordinates": [37.574369976487, 55.724468517431]
      }
    }
  },
  {
    "global_id": 1689856,
    "Number": 32,
    "Cells": {
      "global_id": 1689856,
      "Email": "43@cao.subsident.ru",
      "WorkingHours": [
        { "DayOfWeek": "понедельник", "Hours": "09:00-18:00" },
        { "DayOfWeek": "вторник", "Hours": "09:00-18:00" },
        { "DayOfWeek": "среда", "Hours": "09:00-20:00" },
        { "DayOfWeek": "четверг", "Hours": "09:00-18:00" },
        { "DayOfWeek": "пятница", "Hours": "09:00-16:45" },
        { "DayOfWeek": "суббота", "Hours": "выходной" },
        { "DayOfWeek": "воскресенье", "Hours": "выходной" }
      ],
      "ExtraInfo":
        "Данный отдел жилищных субсидий обслуживает только юридические лица; прием населения ведется в Центре государственных услуг Мои документы.",
      "Name": "Отдел жилищных субсидий района Якиманка",
      "AdmArea": "Центральный административный округ",
      "District": "район Якиманка",
      "Address": "Донская улица, дом 7, строение 1",
      "Phone": [{ "Phone": "(495) 959-81-95" }],
      "ClarificationOfWorkingHours": null,
      "geoData": {
        "type": "Point",
        "coordinates": [37.609287481619, 55.725285327098]
      }
    }
  },
  {
    "global_id": 1689857,
    "Number": 33,
    "Cells": {
      "global_id": 1689857,
      "Email": "164@sao.subsident.ru",
      "WorkingHours": [
        { "DayOfWeek": "понедельник", "Hours": "09:00-18:00" },
        { "DayOfWeek": "вторник", "Hours": "09:00-18:00" },
        { "DayOfWeek": "среда", "Hours": "09:00-18:00" },
        { "DayOfWeek": "четверг", "Hours": "09:00-18:00" },
        { "DayOfWeek": "пятница", "Hours": "09:00-16:45" },
        { "DayOfWeek": "суббота", "Hours": "выходной" },
        { "DayOfWeek": "воскресенье", "Hours": "выходной" }
      ],
      "ExtraInfo":
        "Данный отдел жилищных субсидий обслуживает только юридические лица; прием населения ведется в Центре государственных услуг Мои документы.",
      "Name": "Отдел жилищных субсидий района Аэропорт",
      "AdmArea": "Северный административный округ",
      "District": "район Аэропорт",
      "Address": "улица Черняховского, дом 15, корпус 1",
      "Phone": [{ "Phone": "(499) 152-53-21" }],
      "ClarificationOfWorkingHours": null,
      "geoData": {
        "type": "Point",
        "coordinates": [37.537721858342, 55.807092655438]
      }
    }
  },
  {
    "global_id": 1689858,
    "Number": 34,
    "Cells": {
      "global_id": 1689858,
      "Email": "62@sao.subsident.ru",
      "WorkingHours": [
        { "DayOfWeek": "понедельник", "Hours": "09:00-18:00" },
        { "DayOfWeek": "вторник", "Hours": "09:00-18:00" },
        { "DayOfWeek": "среда", "Hours": "09:00-18:00" },
        { "DayOfWeek": "четверг", "Hours": "09:00-18:00" },
        { "DayOfWeek": "пятница", "Hours": "09:00-16:45" },
        { "DayOfWeek": "суббота", "Hours": "выходной" },
        { "DayOfWeek": "воскресенье", "Hours": "выходной" }
      ],
      "ExtraInfo":
        "Данный отдел жилищных субсидий обслуживает только юридические лица; прием населения ведется в Центре государственных услуг Мои документы.",
      "Name": "Отдел жилищных субсидий района Беговой",
      "AdmArea": "Северный административный округ",
      "District": "район Беговой",
      "Address": "Ленинградский проспект, дом 14, корпус 1",
      "Phone": [{ "Phone": "(495) 614-08-49" }],
      "ClarificationOfWorkingHours": null,
      "geoData": {
        "type": "Point",
        "coordinates": [37.578086854377, 55.780632084093]
      }
    }
  },
  {
    "global_id": 1689859,
    "Number": 35,
    "Cells": {
      "global_id": 1689859,
      "Email": "53@sao.subsident.ru",
      "WorkingHours": [
        { "DayOfWeek": "понедельник", "Hours": "09:00-18:00" },
        { "DayOfWeek": "вторник", "Hours": "09:00-18:00" },
        { "DayOfWeek": "среда", "Hours": "09:00-18:00" },
        { "DayOfWeek": "четверг", "Hours": "09:00-18:00" },
        { "DayOfWeek": "пятница", "Hours": "09:00-16:45" },
        { "DayOfWeek": "суббота", "Hours": "выходной" },
        { "DayOfWeek": "воскресенье", "Hours": "выходной" }
      ],
      "ExtraInfo":
        "Данный отдел жилищных субсидий обслуживает только юридические лица; прием населения ведется в Центре государственных услуг Мои документы.",
      "Name": "Отдел жилищных субсидий района Бескудниковский",
      "AdmArea": "Северный административный округ",
      "District": "Бескудниковский район",
      "Address": "улица 800-летия Москвы, дом 4, корпус 2",
      "Phone": [{ "Phone": "(499) 905-05-61" }],
      "ClarificationOfWorkingHours": null,
      "geoData": {
        "type": "Point",
        "coordinates": [37.536161058875, 55.876056142219]
      }
    }
  },
  {
    "global_id": 1689860,
    "Number": 36,
    "Cells": {
      "global_id": 1689860,
      "Email": "83@sao.subsident.ru",
      "WorkingHours": [
        { "DayOfWeek": "понедельник", "Hours": "09:00-18:00" },
        { "DayOfWeek": "вторник", "Hours": "09:00-18:00" },
        { "DayOfWeek": "среда", "Hours": "09:00-18:00" },
        { "DayOfWeek": "четверг", "Hours": "09:00-18:00" },
        { "DayOfWeek": "пятница", "Hours": "09:00-16:45" },
        { "DayOfWeek": "суббота", "Hours": "выходной" },
        { "DayOfWeek": "воскресенье", "Hours": "выходной" }
      ],
      "ExtraInfo":
        "Данный отдел жилищных субсидий обслуживает только юридические лица; прием населения ведется в Центре государственных услуг Мои документы.",
      "Name": "Отдел жилищных субсидий района Войковский",
      "AdmArea": "Северный административный округ",
      "District": "Войковский район",
      "Address": "улица Клары Цеткин, дом 29, корпус 1",
      "Phone": [{ "Phone": "(495) 601-43-72" }],
      "ClarificationOfWorkingHours": null,
      "geoData": {
        "type": "Point",
        "coordinates": [37.515300195157, 55.825268129756]
      }
    }
  },
  {
    "global_id": 1689861,
    "Number": 37,
    "Cells": {
      "global_id": 1689861,
      "Email": "81@sao.subsident.ru",
      "WorkingHours": [
        { "DayOfWeek": "понедельник", "Hours": "09:00-18:00" },
        { "DayOfWeek": "вторник", "Hours": "09:00-18:00" },
        { "DayOfWeek": "среда", "Hours": "09:00-18:00" },
        { "DayOfWeek": "четверг", "Hours": "09:00-18:00" },
        { "DayOfWeek": "пятница", "Hours": "09:00-16:45" },
        { "DayOfWeek": "суббота", "Hours": "выходной" },
        { "DayOfWeek": "воскресенье", "Hours": "выходной" }
      ],
      "ExtraInfo":
        "Данный отдел жилищных субсидий обслуживает только юридические лица; прием населения ведется в Центре государственных услуг Мои документы.",
      "Name": "Отдел жилищных субсидий района Восточное Дегунино",
      "AdmArea": "Северный административный округ",
      "District": "район Восточное Дегунино",
      "Address": "улица 800-летия Москвы, дом 26, корпус 2",
      "Phone": [{ "Phone": "(499) 480-13-65" }],
      "ClarificationOfWorkingHours": null,
      "geoData": {
        "type": "Point",
        "coordinates": [37.559912229507, 55.878343086033]
      }
    }
  },
  {
    "global_id": 1689862,
    "Number": 38,
    "Cells": {
      "global_id": 1689862,
      "Email": "73@sao.subsident.ru",
      "WorkingHours": [
        { "DayOfWeek": "понедельник", "Hours": "09:00-18:00" },
        { "DayOfWeek": "вторник", "Hours": "09:00-18:00" },
        { "DayOfWeek": "среда", "Hours": "09:00-18:00" },
        { "DayOfWeek": "четверг", "Hours": "09:00-18:00" },
        { "DayOfWeek": "пятница", "Hours": "09:00-16:45" },
        { "DayOfWeek": "суббота", "Hours": "выходной" },
        { "DayOfWeek": "воскресенье", "Hours": "выходной" }
      ],
      "ExtraInfo":
        "Данный отдел жилищных субсидий обслуживает только юридические лица; прием населения ведется в Центре государственных услуг Мои документы.",
      "Name": "Отдел жилищных субсидий района Головинский",
      "AdmArea": "Северный административный округ",
      "District": "Головинский район",
      "Address": "Солнечногорский проезд, дом 3, корпус 3",
      "Phone": [{ "Phone": "(495) 453-33-81" }],
      "ClarificationOfWorkingHours": null,
      "geoData": {
        "type": "Point",
        "coordinates": [37.520885796768, 55.859834033572]
      }
    }
  },
  {
    "global_id": 1689863,
    "Number": 39,
    "Cells": {
      "global_id": 1689863,
      "Email": "61@sao.subsident.ru",
      "WorkingHours": [
        { "DayOfWeek": "понедельник", "Hours": "09:00-18:00" },
        { "DayOfWeek": "вторник", "Hours": "09:00-18:00" },
        { "DayOfWeek": "среда", "Hours": "09:00-18:00" },
        { "DayOfWeek": "четверг", "Hours": "09:00-18:00" },
        { "DayOfWeek": "пятница", "Hours": "09:00-16:45" },
        { "DayOfWeek": "суббота", "Hours": "выходной" },
        { "DayOfWeek": "воскресенье", "Hours": "выходной" }
      ],
      "ExtraInfo":
        "Данный отдел жилищных субсидий обслуживает только юридические лица; прием населения ведется в Центре государственных услуг Мои документы.",
      "Name": "Отдел жилищных субсидий района Дмитровский",
      "AdmArea": "Северный административный округ",
      "District": "Дмитровский район",
      "Address": "улица Софьи Ковалевской, дом 6",
      "Phone": [{ "Phone": "(495) 484-22-52" }],
      "ClarificationOfWorkingHours": null,
      "geoData": {
        "type": "Point",
        "coordinates": [37.533232744567, 55.881182053558]
      }
    }
  },
  {
    "global_id": 1689864,
    "Number": 40,
    "Cells": {
      "global_id": 1689864,
      "Email": "32@uvao.subsident.ru",
      "WorkingHours": [
        { "DayOfWeek": "понедельник", "Hours": "09:00-18:00" },
        { "DayOfWeek": "вторник", "Hours": "09:00-18:00" },
        { "DayOfWeek": "среда", "Hours": "09:00-18:00" },
        { "DayOfWeek": "четверг", "Hours": "09:00-18:00" },
        { "DayOfWeek": "пятница", "Hours": "09:00-16:45" },
        { "DayOfWeek": "суббота", "Hours": "выходной" },
        { "DayOfWeek": "воскресенье", "Hours": "выходной" }
      ],
      "ExtraInfo":
        "Данный отдел жилищных субсидий обслуживает только юридические лица; прием населения ведется в Центре государственных услуг Мои документы.",
      "Name": "Отдел жилищных субсидий района Текстильщики",
      "AdmArea": "Юго-Восточный административный округ",
      "District": "район Текстильщики",
      "Address": "Грайвороновская улица, дом 12, корпус 1",
      "Phone": [{ "Phone": "(499) 177-24-44" }],
      "ClarificationOfWorkingHours": null,
      "geoData": {
        "type": "Point",
        "coordinates": [37.731626801869, 55.719271966822]
      }
    }
  },
  {
    "global_id": 1689865,
    "Number": 41,
    "Cells": {
      "global_id": 1689865,
      "Email": "42@uvao.subsident.ru",
      "WorkingHours": [
        { "DayOfWeek": "понедельник", "Hours": "09:00-18:00" },
        { "DayOfWeek": "вторник", "Hours": "09:00-18:00" },
        { "DayOfWeek": "среда", "Hours": "09:00-18:00" },
        { "DayOfWeek": "четверг", "Hours": "09:00-18:00" },
        { "DayOfWeek": "пятница", "Hours": "09:00-16:45" },
        { "DayOfWeek": "суббота", "Hours": "выходной" },
        { "DayOfWeek": "воскресенье", "Hours": "выходной" }
      ],
      "ExtraInfo":
        "Данный отдел жилищных субсидий обслуживает только юридические лица; прием населения ведется в Центре государственных услуг Мои документы.",
      "Name": "Отдел жилищных субсидий района Южнопортовый",
      "AdmArea": "Юго-Восточный административный округ",
      "District": "Южнопортовый район",
      "Address": "улица Сайкина, дом 1, корпус 1",
      "Phone": [{ "Phone": "(495) 679-95-59" }],
      "ClarificationOfWorkingHours": null,
      "geoData": {
        "type": "Point",
        "coordinates": [37.670254880587, 55.708299914355]
      }
    }
  },
  {
    "global_id": 1689866,
    "Number": 42,
    "Cells": {
      "global_id": 1689866,
      "Email": "20@uao.subsident.ru",
      "WorkingHours": [
        { "DayOfWeek": "понедельник", "Hours": "09:00-18:00" },
        { "DayOfWeek": "вторник", "Hours": "09:00-18:00" },
        { "DayOfWeek": "среда", "Hours": "09:00-18:00" },
        { "DayOfWeek": "четверг", "Hours": "09:00-18:00" },
        { "DayOfWeek": "пятница", "Hours": "09:00-16:45" },
        { "DayOfWeek": "суббота", "Hours": "выходной" },
        { "DayOfWeek": "воскресенье", "Hours": "выходной" }
      ],
      "ExtraInfo":
        "Данный отдел жилищных субсидий обслуживает только юридические лица; прием населения ведется в Центре государственных услуг Мои документы.",
      "Name": "Отдел жилищных субсидий района Бирюлево Западное",
      "AdmArea": "Южный административный округ",
      "District": "район Бирюлёво Западное",
      "Address": "Востряковский проезд, дом 3, корпус 1",
      "Phone": [{ "Phone": "(495) 385-04-45" }],
      "ClarificationOfWorkingHours": null,
      "geoData": {
        "type": "Point",
        "coordinates": [37.642024083564, 55.585652657047]
      }
    }
  },
  {
    "global_id": 1689867,
    "Number": 43,
    "Cells": {
      "global_id": 1689867,
      "Email": "40@uao.subsident.ru",
      "WorkingHours": [
        { "DayOfWeek": "понедельник", "Hours": "09:00-18:00" },
        { "DayOfWeek": "вторник", "Hours": "09:00-18:00" },
        { "DayOfWeek": "среда", "Hours": "09:00-18:00" },
        { "DayOfWeek": "четверг", "Hours": "09:00-18:00" },
        { "DayOfWeek": "пятница", "Hours": "09:00-16:45" },
        { "DayOfWeek": "суббота", "Hours": "выходной" },
        { "DayOfWeek": "воскресенье", "Hours": "выходной" }
      ],
      "ExtraInfo":
        "Данный отдел жилищных субсидий обслуживает только юридические лица; прием населения ведется в Центре государственных услуг Мои документы.",
      "Name": "Отдел жилищных субсидий района Бирюлево Восточное",
      "AdmArea": "Южный административный округ",
      "District": "район Бирюлёво Восточное",
      "Address": "Бирюлёвская улица, дом 24, корпус 1",
      "Phone": [{ "Phone": "(495) 327-02-38" }],
      "ClarificationOfWorkingHours": null,
      "geoData": {
        "type": "Point",
        "coordinates": [37.661678975451, 55.596175166253]
      }
    }
  },
  {
    "global_id": 1689868,
    "Number": 44,
    "Cells": {
      "global_id": 1689868,
      "Email": "112@uao.subsident.ru",
      "WorkingHours": [
        { "DayOfWeek": "понедельник", "Hours": "09:00-18:00" },
        { "DayOfWeek": "вторник", "Hours": "09:00-18:00" },
        { "DayOfWeek": "среда", "Hours": "09:00-18:00" },
        { "DayOfWeek": "четверг", "Hours": "09:00-18:00" },
        { "DayOfWeek": "пятница", "Hours": "09:00-16:45" },
        { "DayOfWeek": "суббота", "Hours": "выходной" },
        { "DayOfWeek": "воскресенье", "Hours": "выходной" }
      ],
      "ExtraInfo":
        "Данный отдел жилищных субсидий обслуживает только юридические лица; прием населения ведется в Центре государственных услуг Мои документы.",
      "Name": "Отдел жилищных субсидий района Братеево",
      "AdmArea": "Южный административный округ",
      "District": "район Братеево",
      "Address": "Ключевая улица, дом 12, корпус 1",
      "Phone": [{ "Phone": "(495) 342-90-68" }],
      "ClarificationOfWorkingHours": null,
      "geoData": {
        "type": "Point",
        "coordinates": [37.759270990914, 55.635832207594]
      }
    }
  },
  {
    "global_id": 1689869,
    "Number": 45,
    "Cells": {
      "global_id": 1689869,
      "Email": "59@uao.subsident.ru",
      "WorkingHours": [
        { "DayOfWeek": "понедельник", "Hours": "09:00-18:00" },
        { "DayOfWeek": "вторник", "Hours": "09:00-18:00" },
        { "DayOfWeek": "среда", "Hours": "09:00-18:00" },
        { "DayOfWeek": "четверг", "Hours": "09:00-18:00" },
        { "DayOfWeek": "пятница", "Hours": "09:00-16:45" },
        { "DayOfWeek": "суббота", "Hours": "выходной" },
        { "DayOfWeek": "воскресенье", "Hours": "выходной" }
      ],
      "ExtraInfo":
        "Данный отдел жилищных субсидий обслуживает только юридические лица; прием населения ведется в Центре государственных услуг Мои документы.",
      "Name": "Отдел жилищных субсидий района Даниловский",
      "AdmArea": "Южный административный округ",
      "District": "Даниловский район",
      "Address": "Автозаводская улица, дом 17, корпус 3",
      "Phone": [{ "Phone": "(495) 675-50-62" }],
      "ClarificationOfWorkingHours": null,
      "geoData": {
        "type": "Point",
        "coordinates": [37.654646889076, 55.703755511196]
      }
    }
  },
  {
    "global_id": 1689870,
    "Number": 46,
    "Cells": {
      "global_id": 1689870,
      "Email": "50@uao.subsident.ru",
      "WorkingHours": [
        { "DayOfWeek": "понедельник", "Hours": "09:00-18:00" },
        { "DayOfWeek": "вторник", "Hours": "09:00-18:00" },
        { "DayOfWeek": "среда", "Hours": "09:00-20:00" },
        { "DayOfWeek": "четверг", "Hours": "09:00-18:00" },
        { "DayOfWeek": "пятница", "Hours": "09:00-16:45" },
        { "DayOfWeek": "суббота", "Hours": "выходной" },
        { "DayOfWeek": "воскресенье", "Hours": "выходной" }
      ],
      "ExtraInfo":
        "Данный отдел жилищных субсидий обслуживает только юридические лица; прием населения ведется в Центре государственных услуг Мои документы.",
      "Name": "Отдел жилищных субсидий района Донской",
      "AdmArea": "Южный административный округ",
      "District": "Донской район",
      "Address": "Варшавское шоссе, дом 18, корпус 3",
      "Phone": [{ "Phone": "(495) 958-33-33" }],
      "ClarificationOfWorkingHours": null,
      "geoData": {
        "type": "Point",
        "coordinates": [37.619273591643, 55.691792007021]
      }
    }
  },
  {
    "global_id": 1689871,
    "Number": 47,
    "Cells": {
      "global_id": 1689871,
      "Email": "127@uao.subsident.ru",
      "WorkingHours": [
        { "DayOfWeek": "понедельник", "Hours": "09:00-18:00" },
        { "DayOfWeek": "вторник", "Hours": "09:00-18:00" },
        { "DayOfWeek": "среда", "Hours": "09:00-18:00" },
        { "DayOfWeek": "четверг", "Hours": "09:00-18:00" },
        { "DayOfWeek": "пятница", "Hours": "09:00-16:45" },
        { "DayOfWeek": "суббота", "Hours": "выходной" },
        { "DayOfWeek": "воскресенье", "Hours": "выходной" }
      ],
      "ExtraInfo":
        "Данный отдел жилищных субсидий обслуживает только юридические лица; прием населения ведется в Центре государственных услуг Мои документы.",
      "Name": "Отдел жилищных субсидий района Зябликово",
      "AdmArea": "Южный административный округ",
      "District": "район Зябликово",
      "Address": "Шипиловская улица, дом 48, корпус 1",
      "Phone": [{ "Phone": "(495) 343-60-67" }],
      "ClarificationOfWorkingHours": null,
      "geoData": {
        "type": "Point",
        "coordinates": [37.735763708597, 55.621341390096]
      }
    }
  },
  {
    "global_id": 1689872,
    "Number": 48,
    "Cells": {
      "global_id": 1689872,
      "Email": "23@uao.subsident.ru",
      "WorkingHours": [
        { "DayOfWeek": "понедельник", "Hours": "09:00-18:00" },
        { "DayOfWeek": "вторник", "Hours": "09:00-18:00" },
        { "DayOfWeek": "среда", "Hours": "09:00-18:00" },
        { "DayOfWeek": "четверг", "Hours": "09:00-18:00" },
        { "DayOfWeek": "пятница", "Hours": "09:00-16:45" },
        { "DayOfWeek": "суббота", "Hours": "выходной" },
        { "DayOfWeek": "воскресенье", "Hours": "выходной" }
      ],
      "ExtraInfo":
        "Данный отдел жилищных субсидий обслуживает только юридические лица; прием населения ведется в Центре государственных услуг Мои документы.",
      "Name": "Отдел жилищных субсидий района Москворечье-Сабурово",
      "AdmArea": "Южный административный округ",
      "District": "район Москворечье-Сабурово",
      "Address": "Кантемировская улица, дом 12, корпус 1",
      "Phone": [{ "Phone": "(499) 323-14-88" }],
      "ClarificationOfWorkingHours": null,
      "geoData": {
        "type": "Point",
        "coordinates": [37.671531671879, 55.637965031457]
      }
    }
  },
  {
    "global_id": 1689873,
    "Number": 49,
    "Cells": {
      "global_id": 1689873,
      "Email": "66@uao.subsident.ru",
      "WorkingHours": [
        { "DayOfWeek": "понедельник", "Hours": "09:00-18:00" },
        { "DayOfWeek": "вторник", "Hours": "09:00-18:00" },
        { "DayOfWeek": "среда", "Hours": "09:00-18:00" },
        { "DayOfWeek": "четверг", "Hours": "09:00-18:00" },
        { "DayOfWeek": "пятница", "Hours": "09:00-16:45" },
        { "DayOfWeek": "суббота", "Hours": "выходной" },
        { "DayOfWeek": "воскресенье", "Hours": "выходной" }
      ],
      "ExtraInfo":
        "Данный отдел жилищных субсидий обслуживает только юридические лица; прием населения ведется в Центре государственных услуг Мои документы.",
      "Name": "Отдел жилищных субсидий района Нагатинский Затон",
      "AdmArea": "Южный административный округ",
      "District": "район Нагатинский Затон",
      "Address": "проспект Андропова, дом 35",
      "Phone": [{ "Phone": "(499) 612-60-92" }],
      "ClarificationOfWorkingHours": null,
      "geoData": {
        "type": "Point",
        "coordinates": [37.666282413504, 55.673944466264]
      }
    }
  },
  {
    "global_id": 1689874,
    "Number": 50,
    "Cells": {
      "global_id": 1689874,
      "Email": "70@uao.subsident.ru",
      "WorkingHours": [
        { "DayOfWeek": "понедельник", "Hours": "09:00-18:00" },
        { "DayOfWeek": "вторник", "Hours": "09:00-18:00" },
        { "DayOfWeek": "среда", "Hours": "09:00-18:00" },
        { "DayOfWeek": "четверг", "Hours": "09:00-18:00" },
        { "DayOfWeek": "пятница", "Hours": "09:00-16:45" },
        { "DayOfWeek": "суббота", "Hours": "выходной" },
        { "DayOfWeek": "воскресенье", "Hours": "выходной" }
      ],
      "ExtraInfo":
        "Данный отдел жилищных субсидий обслуживает только юридические лица; прием населения ведется в Центре государственных услуг Мои документы.",
      "Name": "Отдел жилищных субсидий района Нагорный",
      "AdmArea": "Южный административный округ",
      "District": "Нагорный район",
      "Address": "Чонгарский бульвар, дом 1, корпус 4",
      "Phone": [{ "Phone": "(499) 610-78-50" }],
      "ClarificationOfWorkingHours": null,
      "geoData": {
        "type": "Point",
        "coordinates": [37.615688833042, 55.651977933443]
      }
    }
  },
  {
    "global_id": 1689875,
    "Number": 51,
    "Cells": {
      "global_id": 1689875,
      "Email": "46@uao.subsident.ru",
      "WorkingHours": [
        { "DayOfWeek": "понедельник", "Hours": "09:00-18:00" },
        { "DayOfWeek": "вторник", "Hours": "09:00-18:00" },
        { "DayOfWeek": "среда", "Hours": "09:00-18:00" },
        { "DayOfWeek": "четверг", "Hours": "09:00-18:00" },
        { "DayOfWeek": "пятница", "Hours": "09:00-16:45" },
        { "DayOfWeek": "суббота", "Hours": "выходной" },
        { "DayOfWeek": "воскресенье", "Hours": "выходной" }
      ],
      "ExtraInfo":
        "Данный отдел жилищных субсидий обслуживает только юридические лица; прием населения ведется в Центре государственных услуг Мои документы.",
      "Name": "Отдел жилищных субсидий района Орехово-Борисово Северное",
      "AdmArea": "Южный административный округ",
      "District": "район Орехово-Борисово Северное",
      "Address": "улица Генерала Белова, дом 29, корпус 2",
      "Phone": [{ "Phone": "(495) 393-04-67" }],
      "ClarificationOfWorkingHours": null,
      "geoData": {
        "type": "Point",
        "coordinates": [37.72279969913, 55.615271626659]
      }
    }
  },
  {
    "global_id": 1689876,
    "Number": 52,
    "Cells": {
      "global_id": 1689876,
      "Email": "91@uao.subsident.ru",
      "WorkingHours": [
        { "DayOfWeek": "понедельник", "Hours": "09:00-18:00" },
        { "DayOfWeek": "вторник", "Hours": "09:00-18:00" },
        { "DayOfWeek": "среда", "Hours": "09:00-18:00" },
        { "DayOfWeek": "четверг", "Hours": "09:00-18:00" },
        { "DayOfWeek": "пятница", "Hours": "09:00-16:45" },
        { "DayOfWeek": "суббота", "Hours": "выходной" },
        { "DayOfWeek": "воскресенье", "Hours": "выходной" }
      ],
      "ExtraInfo":
        "Данный отдел жилищных субсидий обслуживает только юридические лица; прием населения ведется в Центре государственных услуг Мои документы.",
      "Name": "Отдел жилищных субсидий района Орехово-Борисово Южное",
      "AdmArea": "Южный административный округ",
      "District": "район Орехово-Борисово Южное",
      "Address": "Тамбовская улица, дом 3/13",
      "Phone": [{ "Phone": "(495) 397-07-40" }],
      "ClarificationOfWorkingHours": null,
      "geoData": {
        "type": "Point",
        "coordinates": [37.747500501619, 55.604641379531]
      }
    }
  },
  {
    "global_id": 1689877,
    "Number": 53,
    "Cells": {
      "global_id": 1689877,
      "Email": "72@uao.subsident.ru",
      "WorkingHours": [
        { "DayOfWeek": "понедельник", "Hours": "09:00-18:00" },
        { "DayOfWeek": "вторник", "Hours": "09:00-18:00" },
        { "DayOfWeek": "среда", "Hours": "09:00-18:00" },
        { "DayOfWeek": "четверг", "Hours": "09:00-18:00" },
        { "DayOfWeek": "пятница", "Hours": "09:00-16:45" },
        { "DayOfWeek": "суббота", "Hours": "выходной" },
        { "DayOfWeek": "воскресенье", "Hours": "выходной" }
      ],
      "ExtraInfo":
        "Данный отдел жилищных субсидий обслуживает только юридические лица; прием населения ведется в Центре государственных услуг Мои документы.",
      "Name": "Отдел жилищных субсидий района Царицыно",
      "AdmArea": "Южный административный округ",
      "District": "район Царицыно",
      "Address": "Кантемировская улица, дом 39",
      "Phone": [{ "Phone": "(499) 323-07-58" }],
      "ClarificationOfWorkingHours": null,
      "geoData": {
        "type": "Point",
        "coordinates": [37.660611287469, 55.637467429793]
      }
    }
  },
  {
    "global_id": 1689878,
    "Number": 54,
    "Cells": {
      "global_id": 1689878,
      "Email": "87@uao.subsident.ru",
      "WorkingHours": [
        { "DayOfWeek": "понедельник", "Hours": "09:00-18:00" },
        { "DayOfWeek": "вторник", "Hours": "09:00-18:00" },
        { "DayOfWeek": "среда", "Hours": "09:00-18:00" },
        { "DayOfWeek": "четверг", "Hours": "09:00-18:00" },
        { "DayOfWeek": "пятница", "Hours": "09:00-16:45" },
        { "DayOfWeek": "суббота", "Hours": "выходной" },
        { "DayOfWeek": "воскресенье", "Hours": "выходной" }
      ],
      "ExtraInfo":
        "Данный отдел жилищных субсидий обслуживает только юридические лица; прием населения ведется в Центре государственных услуг Мои документы.",
      "Name": "Отдел жилищных субсидий района Чертаново Северное",
      "AdmArea": "Южный административный округ",
      "District": "район Чертаново Северное",
      "Address": "Чертановская улица, дом 16, корпус 1",
      "Phone": [{ "Phone": "(495) 311-06-45" }],
      "ClarificationOfWorkingHours": null,
      "geoData": {
        "type": "Point",
        "coordinates": [37.596913483395, 55.627810330356]
      }
    }
  },
  {
    "global_id": 1689879,
    "Number": 55,
    "Cells": {
      "global_id": 1689879,
      "Email": "106@uao.subsident.ru",
      "WorkingHours": [
        { "DayOfWeek": "понедельник", "Hours": "09:00-18:00" },
        { "DayOfWeek": "вторник", "Hours": "09:00-18:00" },
        { "DayOfWeek": "среда", "Hours": "09:00-18:00" },
        { "DayOfWeek": "четверг", "Hours": "09:00-18:00" },
        { "DayOfWeek": "пятница", "Hours": "09:00-16:45" },
        { "DayOfWeek": "суббота", "Hours": "выходной" },
        { "DayOfWeek": "воскресенье", "Hours": "выходной" }
      ],
      "ExtraInfo":
        "Данный отдел жилищных субсидий обслуживает только юридические лица; прием населения ведется в Центре государственных услуг Мои документы.",
      "Name": "Отдел жилищных субсидий района Чертаново Центральное",
      "AdmArea": "Южный административный округ",
      "District": "район Чертаново Центральное",
      "Address": "Чертановская улица, дом 42, корпус 3",
      "Phone": [{ "Phone": "(495) 314-95-11" }],
      "ClarificationOfWorkingHours": null,
      "geoData": {
        "type": "Point",
        "coordinates": [37.589388853784, 55.611210643917]
      }
    }
  },
  {
    "global_id": 1689880,
    "Number": 56,
    "Cells": {
      "global_id": 1689880,
      "Email": "90@uao.subsident.ru",
      "WorkingHours": [
        { "DayOfWeek": "понедельник", "Hours": "09:00-18:00" },
        { "DayOfWeek": "вторник", "Hours": "09:00-18:00" },
        { "DayOfWeek": "среда", "Hours": "09:00-18:00" },
        { "DayOfWeek": "четверг", "Hours": "09:00-18:00" },
        { "DayOfWeek": "пятница", "Hours": "09:00-16:45" },
        { "DayOfWeek": "суббота", "Hours": "выходной" },
        { "DayOfWeek": "воскресенье", "Hours": "выходной" }
      ],
      "ExtraInfo":
        "Данный отдел жилищных субсидий обслуживает только юридические лица; прием населения ведется в Центре государственных услуг Мои документы.",
      "Name": "Отдел жилищных субсидий района Чертаново Южное",
      "AdmArea": "Южный административный округ",
      "District": "район Чертаново Южное",
      "Address": "Россошанская улица, дом 4, корпус 5",
      "Phone": [{ "Phone": "(495) 382-01-28" }],
      "ClarificationOfWorkingHours": null,
      "geoData": {
        "type": "Point",
        "coordinates": [37.610229375007, 55.591097016211]
      }
    }
  },
  {
    "global_id": 1689881,
    "Number": 57,
    "Cells": {
      "global_id": 1689881,
      "Email": "78@uzao.subsident.ru",
      "WorkingHours": [
        { "DayOfWeek": "понедельник", "Hours": "09:00-18:00" },
        { "DayOfWeek": "вторник", "Hours": "09:00-18:00" },
        { "DayOfWeek": "среда", "Hours": "09:00-18:00" },
        { "DayOfWeek": "четверг", "Hours": "09:00-18:00" },
        { "DayOfWeek": "пятница", "Hours": "09:00-16:45" },
        { "DayOfWeek": "суббота", "Hours": "выходной" },
        { "DayOfWeek": "воскресенье", "Hours": "выходной" }
      ],
      "ExtraInfo":
        "Данный отдел жилищных субсидий обслуживает только юридические лица; прием населения ведется в Центре государственных услуг Мои документы.",
      "Name": "Отдел жилищных субсидий района Ломоносовский",
      "AdmArea": "Юго-Западный административный округ",
      "District": "Ломоносовский район",
      "Address": "улица Гарибальди, дом 11",
      "Phone": [{ "Phone": "(499) 134-22-68" }],
      "ClarificationOfWorkingHours": null,
      "geoData": {
        "type": "Point",
        "coordinates": [37.539234762527, 55.676824605038]
      }
    }
  },
  {
    "global_id": 1689882,
    "Number": 58,
    "Cells": {
      "global_id": 1689882,
      "Email": "57@uzao.subsident.ru",
      "WorkingHours": [
        { "DayOfWeek": "понедельник", "Hours": "09:00-18:00" },
        { "DayOfWeek": "вторник", "Hours": "09:00-18:00" },
        { "DayOfWeek": "среда", "Hours": "09:00-18:00" },
        { "DayOfWeek": "четверг", "Hours": "09:00-18:00" },
        { "DayOfWeek": "пятница", "Hours": "09:00-16:45" },
        { "DayOfWeek": "суббота", "Hours": "выходной" },
        { "DayOfWeek": "воскресенье", "Hours": "выходной" }
      ],
      "ExtraInfo":
        "Данный отдел жилищных субсидий обслуживает только юридические лица; прием населения ведется в Центре государственных услуг Мои документы.",
      "Name": "Отдел жилищных субсидий района Академический",
      "AdmArea": "Юго-Западный административный округ",
      "District": "Академический район",
      "Address": "Большая Черёмушкинская улица, дом 2, корпус 5",
      "Phone": [{ "Phone": "(499) 789-50-28" }],
      "ClarificationOfWorkingHours": null,
      "geoData": {
        "type": "Point",
        "coordinates": [37.597608955665, 55.692282798432]
      }
    }
  },
  {
    "global_id": 1689883,
    "Number": 59,
    "Cells": {
      "global_id": 1689883,
      "Email": "113@uzao.subsident.ru",
      "WorkingHours": [
        { "DayOfWeek": "понедельник", "Hours": "09:00-18:00" },
        { "DayOfWeek": "вторник", "Hours": "09:00-18:00" },
        { "DayOfWeek": "среда", "Hours": "09:00-18:00" },
        { "DayOfWeek": "четверг", "Hours": "09:00-18:00" },
        { "DayOfWeek": "пятница", "Hours": "09:00-16:45" },
        { "DayOfWeek": "суббота", "Hours": "выходной" },
        { "DayOfWeek": "воскресенье", "Hours": "выходной" }
      ],
      "ExtraInfo":
        "Данный отдел жилищных субсидий обслуживает только юридические лица; прием населения ведется в Центре государственных услуг Мои документы.",
      "Name": "Отдел жилищных субсидий района Гагаринский",
      "AdmArea": "Юго-Западный административный округ",
      "District": "Гагаринский район",
      "Address": "Ленинский проспект, дом 62/1",
      "Phone": [{ "Phone": "(499) 137-38-91" }],
      "ClarificationOfWorkingHours": null,
      "geoData": {
        "type": "Point",
        "coordinates": [37.553764598722, 55.693686656724]
      }
    }
  },
  {
    "global_id": 1689884,
    "Number": 60,
    "Cells": {
      "global_id": 1689884,
      "Email": "103@uzao.subsident.ru",
      "WorkingHours": [
        { "DayOfWeek": "понедельник", "Hours": "09:00-18:00" },
        { "DayOfWeek": "вторник", "Hours": "09:00-18:00" },
        { "DayOfWeek": "среда", "Hours": "09:00-18:00" },
        { "DayOfWeek": "четверг", "Hours": "09:00-18:00" },
        { "DayOfWeek": "пятница", "Hours": "09:00-16:45" },
        { "DayOfWeek": "суббота", "Hours": "выходной" },
        { "DayOfWeek": "воскресенье", "Hours": "выходной" }
      ],
      "ExtraInfo":
        "Данный отдел жилищных субсидий обслуживает только юридические лица; прием населения ведется в Центре государственных услуг Мои документы.",
      "Name": "Отдел жилищных субсидий района Зюзино",
      "AdmArea": "Юго-Западный административный округ",
      "District": "район Зюзино",
      "Address": "Симферопольский бульвар, дом 16, корпус 1",
      "Phone": [{ "Phone": "(495) 310-77-90" }],
      "ClarificationOfWorkingHours": null,
      "geoData": {
        "type": "Point",
        "coordinates": [37.604578608266, 55.651906121681]
      }
    }
  },
  {
    "global_id": 1689885,
    "Number": 61,
    "Cells": {
      "global_id": 1689885,
      "Email": "51@uzao.subsident.ru",
      "WorkingHours": [
        { "DayOfWeek": "понедельник", "Hours": "09:00-18:00" },
        { "DayOfWeek": "вторник", "Hours": "09:00-18:00" },
        { "DayOfWeek": "среда", "Hours": "09:00-18:00" },
        { "DayOfWeek": "четверг", "Hours": "09:00-18:00" },
        { "DayOfWeek": "пятница", "Hours": "09:00-16:45" },
        { "DayOfWeek": "суббота", "Hours": "выходной" },
        { "DayOfWeek": "воскресенье", "Hours": "выходной" }
      ],
      "ExtraInfo":
        "Данный отдел жилищных субсидий обслуживает только юридические лица; прием населения ведется в Центре государственных услуг Мои документы.",
      "Name": "Отдел жилищных субсидий района Коньково",
      "AdmArea": "Юго-Западный административный округ",
      "District": "район Коньково",
      "Address": "улица Академика Арцимовича, дом 12, корпус 2",
      "Phone": [{ "Phone": "(495) 335-68-33" }],
      "ClarificationOfWorkingHours": null,
      "geoData": {
        "type": "Point",
        "coordinates": [37.509062320039, 55.641897338565]
      }
    }
  },
  {
    "global_id": 1689886,
    "Number": 62,
    "Cells": {
      "global_id": 1689886,
      "Email": "123@uzao.subsident.ru",
      "WorkingHours": [
        { "DayOfWeek": "понедельник", "Hours": "09:00-18:00" },
        { "DayOfWeek": "вторник", "Hours": "09:00-18:00" },
        { "DayOfWeek": "среда", "Hours": "09:00-18:00" },
        { "DayOfWeek": "четверг", "Hours": "09:00-18:00" },
        { "DayOfWeek": "пятница", "Hours": "09:00-16:45" },
        { "DayOfWeek": "суббота", "Hours": "выходной" },
        { "DayOfWeek": "воскресенье", "Hours": "выходной" }
      ],
      "ExtraInfo":
        "Данный отдел жилищных субсидий обслуживает только юридические лица; прием населения ведется в Центре государственных услуг Мои документы.",
      "Name": "Отдел жилищных субсидий района Котловка",
      "AdmArea": "Юго-Западный административный округ",
      "District": "район Котловка",
      "Address": "Севастопольский проспект, дом 51, корпус 4",
      "Phone": [{ "Phone": "(499) 121-90-09" }],
      "ClarificationOfWorkingHours": null,
      "geoData": {
        "type": "Point",
        "coordinates": [37.586517132834, 55.666586442187]
      }
    }
  },
  {
    "global_id": 1689887,
    "Number": 63,
    "Cells": {
      "global_id": 1689887,
      "Email": "56@uzao.subsident.ru",
      "WorkingHours": [
        { "DayOfWeek": "понедельник", "Hours": "09:00-18:00" },
        { "DayOfWeek": "вторник", "Hours": "09:00-18:00" },
        { "DayOfWeek": "среда", "Hours": "09:00-20:00" },
        { "DayOfWeek": "четверг", "Hours": "09:00-18:00" },
        { "DayOfWeek": "пятница", "Hours": "09:00-16:45" },
        { "DayOfWeek": "суббота", "Hours": "выходной" },
        { "DayOfWeek": "воскресенье", "Hours": "выходной" }
      ],
      "ExtraInfo":
        "Данный отдел жилищных субсидий обслуживает только юридические лица; прием населения ведется в Центре государственных услуг Мои документы.",
      "Name": "Отдел жилищных субсидий района Обручевский",
      "AdmArea": "Юго-Западный административный округ",
      "District": "Обручевский район",
      "Address": "улица Архитектора Власова, дом 41",
      "Phone": [{ "Phone": "(499) 120-31-44" }],
      "ClarificationOfWorkingHours": null,
      "geoData": {
        "type": "Point",
        "coordinates": [37.545661451639, 55.667804428977]
      }
    }
  },
  {
    "global_id": 1689888,
    "Number": 64,
    "Cells": {
      "global_id": 1689888,
      "Email": "44@uzao.subsident.ru",
      "WorkingHours": [
        { "DayOfWeek": "понедельник", "Hours": "09:00-18:00" },
        { "DayOfWeek": "вторник", "Hours": "09:00-18:00" },
        { "DayOfWeek": "среда", "Hours": "09:00-18:00" },
        { "DayOfWeek": "четверг", "Hours": "09:00-18:00" },
        { "DayOfWeek": "пятница", "Hours": "09:00-16:45" },
        { "DayOfWeek": "суббота", "Hours": "выходной" },
        { "DayOfWeek": "воскресенье", "Hours": "выходной" }
      ],
      "ExtraInfo":
        "Данный отдел жилищных субсидий обслуживает только юридические лица; прием населения ведется в Центре государственных услуг Мои документы.",
      "Name": "Отдел жилищных субсидий района Северное Бутово",
      "AdmArea": "Юго-Западный административный округ",
      "District": "район Северное Бутово",
      "Address": "Старобитцевская улица, дом 19, корпус 1",
      "Phone": [{ "Phone": "(495) 711-44-97" }],
      "ClarificationOfWorkingHours": null,
      "geoData": {
        "type": "Point",
        "coordinates": [37.580332655972, 55.577051502353]
      }
    }
  },
  {
    "global_id": 1689889,
    "Number": 65,
    "Cells": {
      "global_id": 1689889,
      "Email": "94@uzao.subsident.ru",
      "WorkingHours": [
        { "DayOfWeek": "понедельник", "Hours": "09:00-18:00" },
        { "DayOfWeek": "вторник", "Hours": "09:00-18:00" },
        { "DayOfWeek": "среда", "Hours": "09:00-18:00" },
        { "DayOfWeek": "четверг", "Hours": "09:00-18:00" },
        { "DayOfWeek": "пятница", "Hours": "09:00-16:45" },
        { "DayOfWeek": "суббота", "Hours": "выходной" },
        { "DayOfWeek": "воскресенье", "Hours": "выходной" }
      ],
      "ExtraInfo":
        "Данный отдел жилищных субсидий обслуживает только юридические лица; прием населения ведется в Центре государственных услуг Мои документы.",
      "Name": "Отдел жилищных субсидий района Теплый Стан",
      "AdmArea": "Юго-Западный административный округ",
      "District": "район Тёплый Стан",
      "Address": "Профсоюзная улица, дом 128",
      "Phone": [{ "Phone": "(495) 420-87-16" }],
      "ClarificationOfWorkingHours": null,
      "geoData": {
        "type": "Point",
        "coordinates": [37.516352761387, 55.631501609625]
      }
    }
  },
  {
    "global_id": 1689890,
    "Number": 66,
    "Cells": {
      "global_id": 1689890,
      "Email": "65@uzao.subsident.ru",
      "WorkingHours": [
        { "DayOfWeek": "понедельник", "Hours": "09:00-18:00" },
        { "DayOfWeek": "вторник", "Hours": "09:00-18:00" },
        { "DayOfWeek": "среда", "Hours": "09:00-18:00" },
        { "DayOfWeek": "четверг", "Hours": "09:00-18:00" },
        { "DayOfWeek": "пятница", "Hours": "09:00-16:45" },
        { "DayOfWeek": "суббота", "Hours": "выходной" },
        { "DayOfWeek": "воскресенье", "Hours": "выходной" }
      ],
      "ExtraInfo":
        "Данный отдел жилищных субсидий обслуживает только юридические лица; прием населения ведется в Центре государственных услуг Мои документы.",
      "Name": "Отдел жилищных субсидий района Черемушки",
      "AdmArea": "Юго-Западный административный округ",
      "District": "район Черёмушки",
      "Address": "Профсоюзная улица, дом 25, корпус 4",
      "Phone": [{ "Phone": "(499) 128-57-60" }],
      "ClarificationOfWorkingHours": null,
      "geoData": {
        "type": "Point",
        "coordinates": [37.564439332882, 55.673313879996]
      }
    }
  },
  {
    "global_id": 1689891,
    "Number": 67,
    "Cells": {
      "global_id": 1689891,
      "Email": "134@uzao.subsident.ru",
      "WorkingHours": [
        { "DayOfWeek": "понедельник", "Hours": "09:00-18:00" },
        { "DayOfWeek": "вторник", "Hours": "09:00-18:00" },
        { "DayOfWeek": "среда", "Hours": "09:00-18:00" },
        { "DayOfWeek": "четверг", "Hours": "09:00-18:00" },
        { "DayOfWeek": "пятница", "Hours": "09:00-16:45" },
        { "DayOfWeek": "суббота", "Hours": "выходной" },
        { "DayOfWeek": "воскресенье", "Hours": "выходной" }
      ],
      "ExtraInfo":
        "Данный отдел жилищных субсидий обслуживает только юридические лица; прием населения ведется в Центре государственных услуг Мои документы.",
      "Name": "Отдел жилищных субсидий района Южное Бутово",
      "AdmArea": "Юго-Западный административный округ",
      "District": "район Южное Бутово",
      "Address": "Изюмская улица, дом 50",
      "Phone": [{ "Phone": "(499) 723-54-90" }],
      "ClarificationOfWorkingHours": null,
      "geoData": {
        "type": "Point",
        "coordinates": [37.539430400386, 55.539921844814]
      }
    }
  },
  {
    "global_id": 1689892,
    "Number": 68,
    "Cells": {
      "global_id": 1689892,
      "Email": "58@uzao.subsident.ru",
      "WorkingHours": [
        { "DayOfWeek": "понедельник", "Hours": "09:00-18:00" },
        { "DayOfWeek": "вторник", "Hours": "09:00-18:00" },
        { "DayOfWeek": "среда", "Hours": "09:00-18:00" },
        { "DayOfWeek": "четверг", "Hours": "09:00-18:00" },
        { "DayOfWeek": "пятница", "Hours": "09:00-16:45" },
        { "DayOfWeek": "суббота", "Hours": "выходной" },
        { "DayOfWeek": "воскресенье", "Hours": "выходной" }
      ],
      "ExtraInfo":
        "Данный отдел жилищных субсидий обслуживает только юридические лица; прием населения ведется в Центре государственных услуг Мои документы.",
      "Name": "Отдел жилищных субсидий района Ясенево",
      "AdmArea": "Юго-Западный административный округ",
      "District": "район Ясенево",
      "Address": "Голубинская улица, дом 31, корпус 1",
      "Phone": [{ "Phone": "(495) 427-68-00" }],
      "ClarificationOfWorkingHours": null,
      "geoData": {
        "type": "Point",
        "coordinates": [37.541723007093, 55.596377834389]
      }
    }
  },
  {
    "global_id": 1689893,
    "Number": 69,
    "Cells": {
      "global_id": 1689893,
      "Email": "86@zao.subsident.ru",
      "WorkingHours": [
        { "DayOfWeek": "понедельник", "Hours": "09:00-18:00" },
        { "DayOfWeek": "вторник", "Hours": "09:00-18:00" },
        { "DayOfWeek": "среда", "Hours": "09:00-18:00" },
        { "DayOfWeek": "четверг", "Hours": "09:00-18:00" },
        { "DayOfWeek": "пятница", "Hours": "09:00-16:45" },
        { "DayOfWeek": "суббота", "Hours": "выходной" },
        { "DayOfWeek": "воскресенье", "Hours": "выходной" }
      ],
      "ExtraInfo":
        "Данный отдел жилищных субсидий обслуживает только юридические лица; прием населения ведется в Центре государственных услуг Мои документы.",
      "Name": "Отдел жилищных субсидий района Кунцево",
      "AdmArea": "Западный административный округ",
      "District": "район Кунцево",
      "Address": "улица Боженко, дом 4",
      "Phone": [{ "Phone": "(495) 417-93-11" }],
      "ClarificationOfWorkingHours": null,
      "geoData": {
        "type": "Point",
        "coordinates": [37.407017672217, 55.730422857432]
      }
    }
  },
  {
    "global_id": 1689894,
    "Number": 70,
    "Cells": {
      "global_id": 1689894,
      "Email": "54@zao.subsident.ru",
      "WorkingHours": [
        { "DayOfWeek": "понедельник", "Hours": "09:00-18:00" },
        { "DayOfWeek": "вторник", "Hours": "09:00-18:00" },
        { "DayOfWeek": "среда", "Hours": "09:00-18:00" },
        { "DayOfWeek": "четверг", "Hours": "09:00-18:00" },
        { "DayOfWeek": "пятница", "Hours": "09:00-16:45" },
        { "DayOfWeek": "суббота", "Hours": "выходной" },
        { "DayOfWeek": "воскресенье", "Hours": "выходной" }
      ],
      "ExtraInfo":
        "Данный отдел жилищных субсидий обслуживает только юридические лица; прием населения ведется в Центре государственных услуг Мои документы.",
      "Name": "Отдел жилищных субсидий района Внуково (филиал 1)",
      "AdmArea": "Западный административный округ",
      "District": "район Внуково",
      "Address": "Спортивная улица, дом 3А",
      "Phone": [{ "Phone": "(495) 736-41-56" }],
      "ClarificationOfWorkingHours": null,
      "geoData": {
        "type": "Point",
        "coordinates": [37.299664567869, 55.611084361499]
      }
    }
  },
  {
    "global_id": 1689895,
    "Number": 71,
    "Cells": {
      "global_id": 1689895,
      "Email": "60@zao.subsident.ru",
      "WorkingHours": [
        { "DayOfWeek": "понедельник", "Hours": "09:00-18:00" },
        { "DayOfWeek": "вторник", "Hours": "09:00-18:00" },
        { "DayOfWeek": "среда", "Hours": "09:00-18:00" },
        { "DayOfWeek": "четверг", "Hours": "09:00-18:00" },
        { "DayOfWeek": "пятница", "Hours": "09:00-16:45" },
        { "DayOfWeek": "суббота", "Hours": "выходной" },
        { "DayOfWeek": "воскресенье", "Hours": "выходной" }
      ],
      "ExtraInfo":
        "Данный отдел жилищных субсидий обслуживает только юридические лица; прием населения ведется в Центре государственных услуг Мои документы.",
      "Name": "Отдел жилищных субсидий района Дорогомилово",
      "AdmArea": "Западный административный округ",
      "District": "район Дорогомилово",
      "Address": "Кутузовский проспект, дом 33",
      "Phone": [{ "Phone": "(499) 249-46-49" }],
      "ClarificationOfWorkingHours": null,
      "geoData": {
        "type": "Point",
        "coordinates": [37.541053954128, 55.74085149211]
      }
    }
  },
  {
    "global_id": 1689896,
    "Number": 72,
    "Cells": {
      "global_id": 1689896,
      "Email": "89@zao.subsident.ru",
      "WorkingHours": [
        { "DayOfWeek": "понедельник", "Hours": "09:00-18:00" },
        { "DayOfWeek": "вторник", "Hours": "09:00-18:00" },
        { "DayOfWeek": "среда", "Hours": "09:00-18:00" },
        { "DayOfWeek": "четверг", "Hours": "09:00-18:00" },
        { "DayOfWeek": "пятница", "Hours": "09:00-16:45" },
        { "DayOfWeek": "суббота", "Hours": "выходной" },
        { "DayOfWeek": "воскресенье", "Hours": "выходной" }
      ],
      "ExtraInfo":
        "Данный отдел жилищных субсидий обслуживает только юридические лица; прием населения ведется в Центре государственных услуг Мои документы.",
      "Name": "Отдел жилищных субсидий района Крылатское",
      "AdmArea": "Западный административный округ",
      "District": "район Крылатское",
      "Address": "Осенний бульвар, дом 12, корпус 3",
      "Phone": [{ "Phone": "(495) 415-91-63" }],
      "ClarificationOfWorkingHours": null,
      "geoData": {
        "type": "Point",
        "coordinates": [37.410419560285, 55.758777517685]
      }
    }
  },
  {
    "global_id": 1689897,
    "Number": 73,
    "Cells": {
      "global_id": 1689897,
      "Email": "104@zao.subsident.ru",
      "WorkingHours": [
        { "DayOfWeek": "понедельник", "Hours": "09:00-18:00" },
        { "DayOfWeek": "вторник", "Hours": "09:00-18:00" },
        { "DayOfWeek": "среда", "Hours": "09:00-18:00" },
        { "DayOfWeek": "четверг", "Hours": "09:00-18:00" },
        { "DayOfWeek": "пятница", "Hours": "09:00-16:45" },
        { "DayOfWeek": "суббота", "Hours": "выходной" },
        { "DayOfWeek": "воскресенье", "Hours": "выходной" }
      ],
      "ExtraInfo":
        "Данный отдел жилищных субсидий обслуживает только юридические лица; прием населения ведется в Центре государственных услуг Мои документы.",
      "Name": "Отдел жилищных субсидий района Матвеевское",
      "AdmArea": "Западный административный округ",
      "District": "район Очаково-Матвеевское",
      "Address": "Веерная улица, дом 1, корпус 7",
      "Phone": [{ "Phone": "(499) 726-08-00" }],
      "ClarificationOfWorkingHours": null,
      "geoData": {
        "type": "Point",
        "coordinates": [37.479579656525, 55.705952790302]
      }
    }
  },
  {
    "global_id": 1689898,
    "Number": 74,
    "Cells": {
      "global_id": 1689898,
      "Email": "92@zao.subsident.ru",
      "WorkingHours": [
        { "DayOfWeek": "понедельник", "Hours": "09:00-18:00" },
        { "DayOfWeek": "вторник", "Hours": "09:00-18:00" },
        { "DayOfWeek": "среда", "Hours": "09:00-18:00" },
        { "DayOfWeek": "четверг", "Hours": "09:00-18:00" },
        { "DayOfWeek": "пятница", "Hours": "09:00-16:45" },
        { "DayOfWeek": "суббота", "Hours": "выходной" },
        { "DayOfWeek": "воскресенье", "Hours": "выходной" }
      ],
      "ExtraInfo":
        "Данный отдел жилищных субсидий обслуживает только юридические лица; прием населения ведется в Центре государственных услуг Мои документы.",
      "Name": "Отдел жилищных субсидий района Можайский",
      "AdmArea": "Западный административный округ",
      "District": "Можайский район",
      "Address": "Дорогобужская улица, дом 5, корпус 2",
      "Phone": [{ "Phone": "(495) 448-34-16" }],
      "ClarificationOfWorkingHours": null,
      "geoData": {
        "type": "Point",
        "coordinates": [37.411606723976, 55.714520515043]
      }
    }
  },
  {
    "global_id": 1689899,
    "Number": 75,
    "Cells": {
      "global_id": 1689899,
      "Email": "28@zao.subsident.ru",
      "WorkingHours": [
        { "DayOfWeek": "понедельник", "Hours": "09:00-18:00" },
        { "DayOfWeek": "вторник", "Hours": "09:00-18:00" },
        { "DayOfWeek": "среда", "Hours": "09:00-18:00" },
        { "DayOfWeek": "четверг", "Hours": "09:00-18:00" },
        { "DayOfWeek": "пятница", "Hours": "09:00-16:45" },
        { "DayOfWeek": "суббота", "Hours": "выходной" },
        { "DayOfWeek": "воскресенье", "Hours": "выходной" }
      ],
      "ExtraInfo":
        "Данный отдел жилищных субсидий обслуживает только юридические лица; прием населения ведется в Центре государственных услуг Мои документы.",
      "Name": "Отдел жилищных субсидий района Ново-Переделкино",
      "AdmArea": "Западный административный округ",
      "District": "район Ново-Переделкино",
      "Address": "улица Скульптора Мухиной, дом 10",
      "Phone": [{ "Phone": "(495) 733-64-19" }],
      "ClarificationOfWorkingHours": null,
      "geoData": {
        "type": "Point",
        "coordinates": [37.343023379827, 55.640621294148]
      }
    }
  },
  {
    "global_id": 1689900,
    "Number": 76,
    "Cells": {
      "global_id": 1689900,
      "Email": "111@zao.subsident.ru",
      "WorkingHours": [
        { "DayOfWeek": "понедельник", "Hours": "09:00-18:00" },
        { "DayOfWeek": "вторник", "Hours": "09:00-18:00" },
        { "DayOfWeek": "среда", "Hours": "09:00-18:00" },
        { "DayOfWeek": "четверг", "Hours": "09:00-18:00" },
        { "DayOfWeek": "пятница", "Hours": "09:00-16:45" },
        { "DayOfWeek": "суббота", "Hours": "выходной" },
        { "DayOfWeek": "воскресенье", "Hours": "выходной" }
      ],
      "ExtraInfo":
        "Данный отдел жилищных субсидий обслуживает только юридические лица; прием населения ведется в Центре государственных услуг Мои документы.",
      "Name": "Отдел жилищных субсидий района Очаково",
      "AdmArea": "Западный административный округ",
      "District": "район Очаково-Матвеевское",
      "Address": "улица Наташи Ковшовой, дом 21",
      "Phone": [{ "Phone": "(495) 430-72-40" }],
      "ClarificationOfWorkingHours": null,
      "geoData": {
        "type": "Point",
        "coordinates": [37.448183005401, 55.679509704858]
      }
    }
  },
  {
    "global_id": 1689901,
    "Number": 77,
    "Cells": {
      "global_id": 1689901,
      "Email": "110@zao.subsident.ru",
      "WorkingHours": [
        { "DayOfWeek": "понедельник", "Hours": "09:00-18:00" },
        { "DayOfWeek": "вторник", "Hours": "09:00-18:00" },
        { "DayOfWeek": "среда", "Hours": "09:00-18:00" },
        { "DayOfWeek": "четверг", "Hours": "09:00-18:00" },
        { "DayOfWeek": "пятница", "Hours": "09:00-16:45" },
        { "DayOfWeek": "суббота", "Hours": "выходной" },
        { "DayOfWeek": "воскресенье", "Hours": "выходной" }
      ],
      "ExtraInfo":
        "Данный отдел жилищных субсидий обслуживает только юридические лица; прием населения ведется в Центре государственных услуг Мои документы.",
      "Name": "Отдел жилищных субсидий района Проспект Вернадского",
      "AdmArea": "Западный административный округ",
      "District": "район Проспект Вернадского",
      "Address": "улица Удальцова, дом 4",
      "Phone": [{ "Phone": "(499) 726-81-63" }],
      "ClarificationOfWorkingHours": null,
      "geoData": {
        "type": "Point",
        "coordinates": [37.517577805292, 55.672931052794]
      }
    }
  },
  {
    "global_id": 1689902,
    "Number": 78,
    "Cells": {
      "global_id": 1689902,
      "Email": "119@zao.subsident.ru",
      "WorkingHours": [
        { "DayOfWeek": "понедельник", "Hours": "09:00-18:00" },
        { "DayOfWeek": "вторник", "Hours": "09:00-18:00" },
        { "DayOfWeek": "среда", "Hours": "09:00-18:00" },
        { "DayOfWeek": "четверг", "Hours": "09:00-18:00" },
        { "DayOfWeek": "пятница", "Hours": "09:00-16:45" },
        { "DayOfWeek": "суббота", "Hours": "выходной" },
        { "DayOfWeek": "воскресенье", "Hours": "выходной" }
      ],
      "ExtraInfo":
        "Данный отдел жилищных субсидий обслуживает только юридические лица; прием населения ведется в Центре государственных услуг Мои документы.",
      "Name": "Отдел жилищных субсидий района Раменки",
      "AdmArea": "Западный административный округ",
      "District": "район Раменки",
      "Address": "Мичуринский проспект, дом 25, корпус 3",
      "Phone": [{ "Phone": "(495) 931-00-58" }],
      "ClarificationOfWorkingHours": null,
      "geoData": {
        "type": "Point",
        "coordinates": [37.503220812371, 55.695551118117]
      }
    }
  },
  {
    "global_id": 1689903,
    "Number": 79,
    "Cells": {
      "global_id": 1689903,
      "Email": "25@zao.subsident.ru",
      "WorkingHours": [
        { "DayOfWeek": "понедельник", "Hours": "09:00-18:00" },
        { "DayOfWeek": "вторник", "Hours": "09:00-18:00" },
        { "DayOfWeek": "среда", "Hours": "09:00-18:00" },
        { "DayOfWeek": "четверг", "Hours": "09:00-18:00" },
        { "DayOfWeek": "пятница", "Hours": "09:00-16:45" },
        { "DayOfWeek": "суббота", "Hours": "выходной" },
        { "DayOfWeek": "воскресенье", "Hours": "выходной" }
      ],
      "ExtraInfo":
        "Данный отдел жилищных субсидий обслуживает только юридические лица; прием населения ведется в Центре государственных услуг Мои документы.",
      "Name": "Отдел жилищных субсидий района Солнцево",
      "AdmArea": "Западный административный округ",
      "District": "район Солнцево",
      "Address": "Наро-Фоминская улица, дом 13",
      "Phone": [{ "Phone": "(495) 439-68-84" }],
      "ClarificationOfWorkingHours": null,
      "geoData": {
        "type": "Point",
        "coordinates": [37.386287858511, 55.656340560374]
      }
    }
  },
  {
    "global_id": 1689904,
    "Number": 80,
    "Cells": {
      "global_id": 1689904,
      "Email": "100@vao.subsident.ru",
      "WorkingHours": [
        { "DayOfWeek": "понедельник", "Hours": "09:00-18:00" },
        { "DayOfWeek": "вторник", "Hours": "09:00-18:00" },
        { "DayOfWeek": "среда", "Hours": "09:00-18:00" },
        { "DayOfWeek": "четверг", "Hours": "09:00-18:00" },
        { "DayOfWeek": "пятница", "Hours": "09:00-16:45" },
        { "DayOfWeek": "суббота", "Hours": "выходной" },
        { "DayOfWeek": "воскресенье", "Hours": "выходной" }
      ],
      "ExtraInfo":
        "Данный отдел жилищных субсидий обслуживает только юридические лица; прием населения ведется в Центре государственных услуг Мои документы.",
      "Name": "Отдел жилищных субсидий района Богородское",
      "AdmArea": "Восточный административный округ",
      "District": "район Богородское",
      "Address": "Ивантеевская улица, дом 28, корпус 4",
      "Phone": [{ "Phone": "(499) 160-09-61" }],
      "ClarificationOfWorkingHours": null,
      "geoData": {
        "type": "Point",
        "coordinates": [37.728081287014, 55.814450463123]
      }
    }
  },
  {
    "global_id": 1689905,
    "Number": 81,
    "Cells": {
      "global_id": 1689905,
      "Email": "31@vao.subsident.ru",
      "WorkingHours": [
        { "DayOfWeek": "понедельник", "Hours": "09:00-18:00" },
        { "DayOfWeek": "вторник", "Hours": "09:00-18:00" },
        { "DayOfWeek": "среда", "Hours": "09:00-18:00" },
        { "DayOfWeek": "четверг", "Hours": "09:00-18:00" },
        { "DayOfWeek": "пятница", "Hours": "09:00-16:45" },
        { "DayOfWeek": "суббота", "Hours": "выходной" },
        { "DayOfWeek": "воскресенье", "Hours": "выходной" }
      ],
      "ExtraInfo":
        "Данный отдел жилищных субсидий обслуживает только юридические лица; прием населения ведется в Центре государственных услуг Мои документы.",
      "Name": "Отдел жилищных субсидий района Вешняки",
      "AdmArea": "Восточный административный округ",
      "District": "район Вешняки",
      "Address": "улица Молдагуловой, дом 15А",
      "Phone": [{ "Phone": "(499) 374-24-00" }],
      "ClarificationOfWorkingHours": null,
      "geoData": {
        "type": "Point",
        "coordinates": [37.83187895435, 55.720577123163]
      }
    }
  },
  {
    "global_id": 1689906,
    "Number": 82,
    "Cells": {
      "global_id": 1689906,
      "Email": "137@vao.subsident.ru",
      "WorkingHours": [
        { "DayOfWeek": "понедельник", "Hours": "09:00-18:00" },
        { "DayOfWeek": "вторник", "Hours": "09:00-18:00" },
        { "DayOfWeek": "среда", "Hours": "09:00-18:00" },
        { "DayOfWeek": "четверг", "Hours": "09:00-18:00" },
        { "DayOfWeek": "пятница", "Hours": "09:00-16:45" },
        { "DayOfWeek": "суббота", "Hours": "выходной" },
        { "DayOfWeek": "воскресенье", "Hours": "выходной" }
      ],
      "ExtraInfo":
        "Данный отдел жилищных субсидий обслуживает только юридические лица; прием населения ведется в Центре государственных услуг Мои документы.",
      "Name": "Отдел жилищных субсидий района Восточное Измайлово",
      "AdmArea": "Восточный административный округ",
      "District": "район Восточное Измайлово",
      "Address": "Первомайская улица, дом 112",
      "Phone": [{ "Phone": "(495) 965-73-74" }],
      "ClarificationOfWorkingHours": null,
      "geoData": {
        "type": "Point",
        "coordinates": [37.816895120451, 55.793115080783]
      }
    }
  },
  {
    "global_id": 1689907,
    "Number": 83,
    "Cells": {
      "global_id": 1689907,
      "Email": "120@vao.subsident.ru",
      "WorkingHours": [
        { "DayOfWeek": "понедельник", "Hours": "09:00-18:00" },
        { "DayOfWeek": "вторник", "Hours": "09:00-18:00" },
        { "DayOfWeek": "среда", "Hours": "09:00-18:00" },
        { "DayOfWeek": "четверг", "Hours": "09:00-18:00" },
        { "DayOfWeek": "пятница", "Hours": "09:00-16:45" },
        { "DayOfWeek": "суббота", "Hours": "выходной" },
        { "DayOfWeek": "воскресенье", "Hours": "выходной" }
      ],
      "ExtraInfo":
        "Данный отдел жилищных субсидий обслуживает только юридические лица; прием населения ведется в Центре государственных услуг Мои документы.",
      "Name": "Отдел жилищных субсидий района Гольяново",
      "AdmArea": "Восточный административный округ",
      "District": "район Гольяново",
      "Address": "Байкальская улица, дом 23",
      "Phone": [{ "Phone": "(495) 462-36-70" }],
      "ClarificationOfWorkingHours": null,
      "geoData": {
        "type": "Point",
        "coordinates": [37.800849798551, 55.817427589637]
      }
    }
  },
  {
    "global_id": 1689908,
    "Number": 84,
    "Cells": {
      "global_id": 1689908,
      "Email": "125@vao.subsident.ru",
      "WorkingHours": [
        { "DayOfWeek": "понедельник", "Hours": "09:00-18:00" },
        { "DayOfWeek": "вторник", "Hours": "09:00-18:00" },
        { "DayOfWeek": "среда", "Hours": "09:00-18:00" },
        { "DayOfWeek": "четверг", "Hours": "09:00-18:00" },
        { "DayOfWeek": "пятница", "Hours": "09:00-16:45" },
        { "DayOfWeek": "суббота", "Hours": "выходной" },
        { "DayOfWeek": "воскресенье", "Hours": "выходной" }
      ],
      "ExtraInfo":
        "Данный отдел жилищных субсидий обслуживает только юридические лица; прием населения ведется в Центре государственных услуг Мои документы.",
      "Name": "Отдел жилищных субсидий района Ивановское",
      "AdmArea": "Восточный административный округ",
      "District": "район Ивановское",
      "Address": "Большой Купавенский проезд, дом 2",
      "Phone": [{ "Phone": "(499) 308-40-90" }],
      "ClarificationOfWorkingHours": null,
      "geoData": {
        "type": "Point",
        "coordinates": [37.820440465401, 55.773699497641]
      }
    }
  },
  {
    "global_id": 1689909,
    "Number": 85,
    "Cells": {
      "global_id": 1689909,
      "Email": "41@vao.subsident.ru",
      "WorkingHours": [
        { "DayOfWeek": "понедельник", "Hours": "09:00-18:00" },
        { "DayOfWeek": "вторник", "Hours": "09:00-18:00" },
        { "DayOfWeek": "среда", "Hours": "09:00-18:00" },
        { "DayOfWeek": "четверг", "Hours": "09:00-18:00" },
        { "DayOfWeek": "пятница", "Hours": "09:00-16:45" },
        { "DayOfWeek": "суббота", "Hours": "выходной" },
        { "DayOfWeek": "воскресенье", "Hours": "выходной" }
      ],
      "ExtraInfo":
        "Данный отдел жилищных субсидий обслуживает только юридические лица; прием населения ведется в Центре государственных услуг Мои документы.",
      "Name": "Отдел жилищных субсидий района Измайлово",
      "AdmArea": "Восточный административный округ",
      "District": "район Измайлово",
      "Address": "7-я Парковая улица, дом 27",
      "Phone": [{ "Phone": "(495) 652-29-40" }],
      "ClarificationOfWorkingHours": null,
      "geoData": {
        "type": "Point",
        "coordinates": [37.792398684792, 55.802357389439]
      }
    }
  },
  {
    "global_id": 1689910,
    "Number": 86,
    "Cells": {
      "global_id": 1689910,
      "Email": "143@vao.subsident.ru",
      "WorkingHours": [
        { "DayOfWeek": "понедельник", "Hours": "09:00-18:00" },
        { "DayOfWeek": "вторник", "Hours": "09:00-18:00" },
        { "DayOfWeek": "среда", "Hours": "09:00-18:00" },
        { "DayOfWeek": "четверг", "Hours": "09:00-18:00" },
        { "DayOfWeek": "пятница", "Hours": "09:00-16:45" },
        { "DayOfWeek": "суббота", "Hours": "выходной" },
        { "DayOfWeek": "воскресенье", "Hours": "выходной" }
      ],
      "ExtraInfo":
        "Данный отдел жилищных субсидий обслуживает только юридические лица; прием населения ведется в Центре государственных услуг Мои документы.",
      "Name": "Отдел жилищных субсидий района Кожухово",
      "AdmArea": "Восточный административный округ",
      "District": "район Косино-Ухтомский",
      "Address": "Святоозёрская улица, дом 15",
      "Phone": [{ "Phone": "(499) 721-86-03" }],
      "ClarificationOfWorkingHours": null,
      "geoData": {
        "type": "Point",
        "coordinates": [37.894097402775, 55.714441384519]
      }
    }
  },
  {
    "global_id": 1689911,
    "Number": 87,
    "Cells": {
      "global_id": 1689911,
      "Email": "139@vao.subsident.ru",
      "WorkingHours": [
        { "DayOfWeek": "понедельник", "Hours": "09:00-18:00" },
        { "DayOfWeek": "вторник", "Hours": "09:00-18:00" },
        { "DayOfWeek": "среда", "Hours": "09:00-18:00" },
        { "DayOfWeek": "четверг", "Hours": "09:00-18:00" },
        { "DayOfWeek": "пятница", "Hours": "09:00-16:45" },
        { "DayOfWeek": "суббота", "Hours": "выходной" },
        { "DayOfWeek": "воскресенье", "Hours": "выходной" }
      ],
      "ExtraInfo":
        "Данный отдел жилищных субсидий обслуживает только юридические лица; прием населения ведется в Центре государственных услуг Мои документы.",
      "Name": "Отдел жилищных субсидий района Косино-Ухтомский",
      "AdmArea": "Восточный административный округ",
      "District": "район Косино-Ухтомский",
      "Address": "Новокосинская улица, дом 15, корпус 7",
      "Phone": [{ "Phone": "(495) 702-25-00" }],
      "ClarificationOfWorkingHours": null,
      "geoData": {
        "type": "Point",
        "coordinates": [37.853057873054, 55.739477536167]
      }
    }
  },
  {
    "global_id": 1689912,
    "Number": 88,
    "Cells": {
      "global_id": 1689912,
      "Email": "55@vao.subsident.ru",
      "WorkingHours": [
        { "DayOfWeek": "понедельник", "Hours": "09:00-18:00" },
        { "DayOfWeek": "вторник", "Hours": "09:00-18:00" },
        { "DayOfWeek": "среда", "Hours": "09:00-18:00" },
        { "DayOfWeek": "четверг", "Hours": "09:00-18:00" },
        { "DayOfWeek": "пятница", "Hours": "09:00-16:45" },
        { "DayOfWeek": "суббота", "Hours": "выходной" },
        { "DayOfWeek": "воскресенье", "Hours": "выходной" }
      ],
      "ExtraInfo":
        "Данный отдел жилищных субсидий обслуживает только юридические лица; прием населения ведется в Центре государственных услуг Мои документы.",
      "Name": "Отдел жилищных субсидий района Метрогородок",
      "AdmArea": "Восточный административный округ",
      "District": "район Метрогородок",
      "Address": "Открытое шоссе, дом 19, корпус 1",
      "Phone": [{ "Phone": "(499) 167-51-00" }],
      "ClarificationOfWorkingHours": null,
      "geoData": {
        "type": "Point",
        "coordinates": [37.749685519175, 55.823819950993]
      }
    }
  },
  {
    "global_id": 1689913,
    "Number": 89,
    "Cells": {
      "global_id": 1689913,
      "Email": "121@vao.subsident.ru",
      "WorkingHours": [
        { "DayOfWeek": "понедельник", "Hours": "09:00-18:00" },
        { "DayOfWeek": "вторник", "Hours": "09:00-18:00" },
        { "DayOfWeek": "среда", "Hours": "09:00-18:00" },
        { "DayOfWeek": "четверг", "Hours": "09:00-18:00" },
        { "DayOfWeek": "пятница", "Hours": "09:00-16:45" },
        { "DayOfWeek": "суббота", "Hours": "выходной" },
        { "DayOfWeek": "воскресенье", "Hours": "выходной" }
      ],
      "ExtraInfo":
        "Данный отдел жилищных субсидий обслуживает только юридические лица; прием населения ведется в Центре государственных услуг Мои документы.",
      "Name": "Отдел жилищных субсидий района Новогиреево",
      "AdmArea": "Восточный административный округ",
      "District": "район Новогиреево",
      "Address": "Свободный проспект, дом 37/18",
      "Phone": [{ "Phone": "(495) 918-43-11" }],
      "ClarificationOfWorkingHours": null,
      "geoData": {
        "type": "Point",
        "coordinates": [37.816410187769, 55.748259017646]
      }
    }
  },
  {
    "global_id": 1689914,
    "Number": 90,
    "Cells": {
      "global_id": 1689914,
      "Email": "26@vao.subsident.ru",
      "WorkingHours": [
        { "DayOfWeek": "понедельник", "Hours": "09:00-18:00" },
        { "DayOfWeek": "вторник", "Hours": "09:00-18:00" },
        { "DayOfWeek": "среда", "Hours": "09:00-18:00" },
        { "DayOfWeek": "четверг", "Hours": "09:00-18:00" },
        { "DayOfWeek": "пятница", "Hours": "09:00-16:45" },
        { "DayOfWeek": "суббота", "Hours": "выходной" },
        { "DayOfWeek": "воскресенье", "Hours": "выходной" }
      ],
      "ExtraInfo":
        "Данный отдел жилищных субсидий обслуживает только юридические лица; прием населения ведется в Центре государственных услуг Мои документы.",
      "Name": "Отдел жилищных субсидий района Новокосино",
      "AdmArea": "Восточный административный округ",
      "District": "район Новокосино",
      "Address": "Суздальская улица, дом 24, корпус 2",
      "Phone": [{ "Phone": "(495) 702-16-00" }],
      "ClarificationOfWorkingHours": null,
      "geoData": {
        "type": "Point",
        "coordinates": [37.858258263867, 55.743075723577]
      }
    }
  },
  {
    "global_id": 1689915,
    "Number": 91,
    "Cells": {
      "global_id": 1689915,
      "Email": "130@vao.subsident.ru",
      "WorkingHours": [
        { "DayOfWeek": "понедельник", "Hours": "09:00-18:00" },
        { "DayOfWeek": "вторник", "Hours": "09:00-18:00" },
        { "DayOfWeek": "среда", "Hours": "09:00-18:00" },
        { "DayOfWeek": "четверг", "Hours": "09:00-18:00" },
        { "DayOfWeek": "пятница", "Hours": "09:00-16:45" },
        { "DayOfWeek": "суббота", "Hours": "выходной" },
        { "DayOfWeek": "воскресенье", "Hours": "выходной" }
      ],
      "ExtraInfo":
        "Данный отдел жилищных субсидий обслуживает только юридические лица; прием населения ведется в Центре государственных услуг Мои документы.",
      "Name": "Отдел жилищных субсидий района Перово",
      "AdmArea": "Восточный административный округ",
      "District": "район Перово",
      "Address": "Зелёный проспект, дом 8",
      "Phone": [{ "Phone": "(495) 368-61-10" }],
      "ClarificationOfWorkingHours": null,
      "geoData": {
        "type": "Point",
        "coordinates": [37.777102734175, 55.748772153354]
      }
    }
  },
  {
    "global_id": 1689916,
    "Number": 92,
    "Cells": {
      "global_id": 1689916,
      "Email": "116@vao.subsident.ru",
      "WorkingHours": [
        { "DayOfWeek": "понедельник", "Hours": "09:00-18:00" },
        { "DayOfWeek": "вторник", "Hours": "09:00-18:00" },
        { "DayOfWeek": "среда", "Hours": "09:00-18:00" },
        { "DayOfWeek": "четверг", "Hours": "09:00-18:00" },
        { "DayOfWeek": "пятница", "Hours": "09:00-16:45" },
        { "DayOfWeek": "суббота", "Hours": "выходной" },
        { "DayOfWeek": "воскресенье", "Hours": "выходной" }
      ],
      "ExtraInfo":
        "Данный отдел жилищных субсидий обслуживает только юридические лица; прием населения ведется в Центре государственных услуг Мои документы.",
      "Name": "Отдел жилищных субсидий района Северное Измайлово",
      "AdmArea": "Восточный административный округ",
      "District": "район Северное Измайлово",
      "Address": "7-я Парковая улица, дом 7",
      "Phone": [{ "Phone": "(499) 166-16-09" }],
      "ClarificationOfWorkingHours": null,
      "geoData": {
        "type": "Point",
        "coordinates": [37.793293530377, 55.79548456323]
      }
    }
  },
  {
    "global_id": 1689917,
    "Number": 93,
    "Cells": {
      "global_id": 1689917,
      "Email": "129@vao.subsident.ru",
      "WorkingHours": [
        { "DayOfWeek": "понедельник", "Hours": "09:00-18:00" },
        { "DayOfWeek": "вторник", "Hours": "09:00-18:00" },
        { "DayOfWeek": "среда", "Hours": "09:00-18:00" },
        { "DayOfWeek": "четверг", "Hours": "09:00-18:00" },
        { "DayOfWeek": "пятница", "Hours": "09:00-16:45" },
        { "DayOfWeek": "суббота", "Hours": "выходной" },
        { "DayOfWeek": "воскресенье", "Hours": "выходной" }
      ],
      "ExtraInfo":
        "Данный отдел жилищных субсидий обслуживает только юридические лица; прием населения ведется в Центре государственных услуг Мои документы.",
      "Name": "Отдел жилищных субсидий района Соколиная Гора",
      "AdmArea": "Восточный административный округ",
      "District": "район Соколиная Гора",
      "Address": "Фортунатовская улица, дом 27А",
      "Phone": [{ "Phone": "(499) 369-17-61" }],
      "ClarificationOfWorkingHours": null,
      "geoData": {
        "type": "Point",
        "coordinates": [37.739121964177, 55.786241982861]
      }
    }
  },
  {
    "global_id": 1689918,
    "Number": 94,
    "Cells": {
      "global_id": 1689918,
      "Email": "63@uvao.subsident.ru",
      "WorkingHours": [
        { "DayOfWeek": "понедельник", "Hours": "09:00-18:00" },
        { "DayOfWeek": "вторник", "Hours": "09:00-18:00" },
        { "DayOfWeek": "среда", "Hours": "09:00-18:00" },
        { "DayOfWeek": "четверг", "Hours": "09:00-18:00" },
        { "DayOfWeek": "пятница", "Hours": "09:00-16:45" },
        { "DayOfWeek": "суббота", "Hours": "выходной" },
        { "DayOfWeek": "воскресенье", "Hours": "выходной" }
      ],
      "ExtraInfo":
        "Данный отдел жилищных субсидий обслуживает только юридические лица; прием населения ведется в Центре государственных услуг Мои документы.",
      "Name": "Отдел жилищных субсидий района Люблино",
      "AdmArea": "Юго-Восточный административный округ",
      "District": "район Люблино",
      "Address": "Краснодонская улица, дом 18/18",
      "Phone": [{ "Phone": "(495) 351-00-90" }],
      "ClarificationOfWorkingHours": null,
      "geoData": {
        "type": "Point",
        "coordinates": [37.748421851672, 55.677045243283]
      }
    }
  },
  {
    "global_id": 1689919,
    "Number": 95,
    "Cells": {
      "global_id": 1689919,
      "Email": "27@uvao.subsident.ru",
      "WorkingHours": [
        { "DayOfWeek": "понедельник", "Hours": "09:00-18:00" },
        { "DayOfWeek": "вторник", "Hours": "09:00-18:00" },
        { "DayOfWeek": "среда", "Hours": "09:00-18:00" },
        { "DayOfWeek": "четверг", "Hours": "09:00-18:00" },
        { "DayOfWeek": "пятница", "Hours": "09:00-16:45" },
        { "DayOfWeek": "суббота", "Hours": "выходной" },
        { "DayOfWeek": "воскресенье", "Hours": "выходной" }
      ],
      "ExtraInfo":
        "Данный отдел жилищных субсидий обслуживает только юридические лица; прием населения ведется в Центре государственных услуг Мои документы.",
      "Name": "Отдел жилищных субсидий района Выхино-Жулебино",
      "AdmArea": "Юго-Восточный административный округ",
      "District": "район Выхино-Жулебино",
      "Address": "Самаркандский бульвар, квартал 134А, корпус 2",
      "Phone": [{ "Phone": "(495) 377-20-57" }],
      "ClarificationOfWorkingHours": null,
      "geoData": {
        "type": "Point",
        "coordinates": [37.827770370625, 55.704600103405]
      }
    }
  },
  {
    "global_id": 1689920,
    "Number": 96,
    "Cells": {
      "global_id": 1689920,
      "Email": "128@uvao.subsident.ru",
      "WorkingHours": [
        { "DayOfWeek": "понедельник", "Hours": "09:00-18:00" },
        { "DayOfWeek": "вторник", "Hours": "09:00-18:00" },
        { "DayOfWeek": "среда", "Hours": "09:00-18:00" },
        { "DayOfWeek": "четверг", "Hours": "09:00-18:00" },
        { "DayOfWeek": "пятница", "Hours": "09:00-18:00" },
        { "DayOfWeek": "суббота", "Hours": "09:00-16:45" },
        { "DayOfWeek": "воскресенье", "Hours": "выходной" }
      ],
      "ExtraInfo":
        "Данный отдел жилищных субсидий обслуживает только юридические лица; прием населения ведется в Центре государственных услуг Мои документы.",
      "Name": "Отдел жилищных субсидий района Капотня",
      "AdmArea": "Юго-Восточный административный округ",
      "District": "район Капотня",
      "Address": "Капотня, 2-й квартал, дом 1",
      "Phone": [{ "Phone": "(495) 355-16-70" }],
      "ClarificationOfWorkingHours": null,
      "geoData": {
        "type": "Point",
        "coordinates": [37.79679807754, 55.638674244399]
      }
    }
  },
  {
    "global_id": 1689921,
    "Number": 97,
    "Cells": {
      "global_id": 1689921,
      "Email": "84@uvao.subsident.ru",
      "WorkingHours": [
        { "DayOfWeek": "понедельник", "Hours": "09:00-18:00" },
        { "DayOfWeek": "вторник", "Hours": "09:00-18:00" },
        { "DayOfWeek": "среда", "Hours": "09:00-18:00" },
        { "DayOfWeek": "четверг", "Hours": "09:00-18:00" },
        { "DayOfWeek": "пятница", "Hours": "09:00-16:45" },
        { "DayOfWeek": "суббота", "Hours": "выходной" },
        { "DayOfWeek": "воскресенье", "Hours": "выходной" }
      ],
      "ExtraInfo":
        "Данный отдел жилищных субсидий обслуживает только юридические лица; прием населения ведется в Центре государственных услуг Мои документы.",
      "Name": "Отдел жилищных субсидий района Кузьминки",
      "AdmArea": "Юго-Восточный административный округ",
      "District": "район Кузьминки",
      "Address": "улица Фёдора Полетаева, дом 32, корпус 6",
      "Phone": [{ "Phone": "(495) 378-43-57" }],
      "ClarificationOfWorkingHours": null,
      "geoData": {
        "type": "Point",
        "coordinates": [37.785983965615, 55.706314851547]
      }
    }
  },
  {
    "global_id": 1689923,
    "Number": 98,
    "Cells": {
      "global_id": 1689923,
      "Email": "115@uvao.subsident.ru",
      "WorkingHours": [
        { "DayOfWeek": "понедельник", "Hours": "09:00-18:00" },
        { "DayOfWeek": "вторник", "Hours": "09:00-18:00" },
        { "DayOfWeek": "среда", "Hours": "09:00-18:00" },
        { "DayOfWeek": "четверг", "Hours": "09:00-18:00" },
        { "DayOfWeek": "пятница", "Hours": "09:00-16:45" },
        { "DayOfWeek": "суббота", "Hours": "выходной" },
        { "DayOfWeek": "воскресенье", "Hours": "выходной" }
      ],
      "ExtraInfo":
        "Данный отдел жилищных субсидий обслуживает только юридические лица; прием населения ведется в Центре государственных услуг Мои документы.",
      "Name": "Отдел жилищных субсидий района Марьино",
      "AdmArea": "Юго-Восточный административный округ",
      "District": "район Марьино",
      "Address": "Поречная улица, дом 9",
      "Phone": [{ "Phone": "(495) 346-10-54" }],
      "ClarificationOfWorkingHours": null,
      "geoData": {
        "type": "Point",
        "coordinates": [37.755942848926, 55.645906642043]
      }
    }
  },
  {
    "global_id": 1689924,
    "Number": 99,
    "Cells": {
      "global_id": 1689924,
      "Email": "142@uvao.subsident.ru",
      "WorkingHours": [
        { "DayOfWeek": "понедельник", "Hours": "09:00-18:00" },
        { "DayOfWeek": "вторник", "Hours": "09:00-18:00" },
        { "DayOfWeek": "среда", "Hours": "09:00-18:00" },
        { "DayOfWeek": "четверг", "Hours": "09:00-18:00" },
        { "DayOfWeek": "пятница", "Hours": "09:00-16:45" },
        { "DayOfWeek": "суббота", "Hours": "выходной" },
        { "DayOfWeek": "воскресенье", "Hours": "выходной" }
      ],
      "ExtraInfo":
        "Данный отдел жилищных субсидий обслуживает только юридические лица; прием населения ведется в Центре государственных услуг Мои документы.",
      "Name": "Отдел жилищных субсидий района Некрасовка",
      "AdmArea": "Юго-Восточный административный округ",
      "District": "район Некрасовка",
      "Address": "1-я Вольская улица, дом 18, корпус 1",
      "Phone": [{ "Phone": "(499) 746-77-90" }],
      "ClarificationOfWorkingHours": null,
      "geoData": {
        "type": "Point",
        "coordinates": [37.923352428376, 55.683079813235]
      }
    }
  },
  {
    "global_id": 1689925,
    "Number": 100,
    "Cells": {
      "global_id": 1689925,
      "Email": "140@uvao.subsident.ru",
      "WorkingHours": [
        { "DayOfWeek": "понедельник", "Hours": "09:00-18:00" },
        { "DayOfWeek": "вторник", "Hours": "09:00-18:00" },
        { "DayOfWeek": "среда", "Hours": "09:00-18:00" },
        { "DayOfWeek": "четверг", "Hours": "09:00-18:00" },
        { "DayOfWeek": "пятница", "Hours": "09:00-16:45" },
        { "DayOfWeek": "суббота", "Hours": "выходной" },
        { "DayOfWeek": "воскресенье", "Hours": "выходной" }
      ],
      "ExtraInfo":
        "Данный отдел жилищных субсидий обслуживает только юридические лица; прием населения ведется в Центре государственных услуг Мои документы.",
      "Name": "Отдел жилищных субсидий района Нижегородский",
      "AdmArea": "Юго-Восточный административный округ",
      "District": "Нижегородский район",
      "Address": "2-й Карачаровский проезд, дом 4А",
      "Phone": [{ "Phone": "(495) 657-18-47" }],
      "ClarificationOfWorkingHours": null,
      "geoData": {
        "type": "Point",
        "coordinates": [37.754891513495, 55.729834992397]
      }
    }
  }
]
